{
  "1": [
    {
      "display": "Van Cortlandt Park-242nd Street",
      "name": "Van Cortlandt Park-242 St",
      "gtfsStopId": "101",
      "latitude": 40.889248,
      "longitude": -73.898583
    },
    {
      "display": "238th Street",
      "name": "238 St",
      "gtfsStopId": "103",
      "latitude": 40.884667,
      "longitude": -73.90087
    },
    {
      "display": "231st Street",
      "name": "231 St",
      "gtfsStopId": "104",
      "latitude": 40.878856,
      "longitude": -73.904834
    },
    {
      "display": "Marble Hill-225th Street",
      "name": "Marble Hill-225 St",
      "gtfsStopId": "106",
      "latitude": 40.874561,
      "longitude": -73.909831
    },
    {
      "display": "215th Street",
      "name": "215 St",
      "gtfsStopId": "107",
      "latitude": 40.869444,
      "longitude": -73.915279
    },
    {
      "display": "207th Street",
      "name": "207 St",
      "gtfsStopId": "108",
      "latitude": 40.864621,
      "longitude": -73.918822
    },
    {
      "display": "Dyckman Street",
      "name": "Dyckman St",
      "gtfsStopId": "A03",
      "latitude": 40.865491,
      "longitude": -73.927271
    },
    {
      "display": "191st Street",
      "name": "191 St",
      "gtfsStopId": "110",
      "latitude": 40.855225,
      "longitude": -73.929412
    },
    {
      "display": "181st Street",
      "name": "181 St",
      "gtfsStopId": "A06",
      "latitude": 40.851695,
      "longitude": -73.937969
    },
    {
      "display": "168th Street",
      "name": "168 St-Washington Hts",
      "gtfsStopId": "112",
      "latitude": 40.840556,
      "longitude": -73.940133
    },
    {
      "display": "157th Street",
      "name": "157 St",
      "gtfsStopId": "113",
      "latitude": 40.834041,
      "longitude": -73.94489
    },
    {
      "display": "145th Street",
      "name": "145 St",
      "gtfsStopId": "D13",
      "latitude": 40.824783,
      "longitude": -73.944216
    },
    {
      "display": "137th Street-City College",
      "name": "137 St-City College",
      "gtfsStopId": "115",
      "latitude": 40.822008,
      "longitude": -73.953676
    },
    {
      "display": "125th Street",
      "name": "125 St",
      "gtfsStopId": "A15",
      "latitude": 40.811109,
      "longitude": -73.952343
    },
    {
      "display": "116th Street-Columbia University",
      "name": "116 St-Columbia University",
      "gtfsStopId": "117",
      "latitude": 40.807722,
      "longitude": -73.96411
    },
    {
      "display": "Cathedral Parkway-110th Street",
      "name": "Cathedral Pkwy (110 St)",
      "gtfsStopId": "A17",
      "latitude": 40.800603,
      "longitude": -73.958161
    },
    {
      "display": "103rd Street",
      "name": "103 St",
      "gtfsStopId": "A18",
      "latitude": 40.796092,
      "longitude": -73.961454
    },
    {
      "display": "96th Street",
      "name": "96 St",
      "gtfsStopId": "Q05",
      "latitude": 40.784318,
      "longitude": -73.947152
    },
    {
      "display": "86th Street",
      "name": "86 St",
      "gtfsStopId": "R44",
      "latitude": 40.622687,
      "longitude": -74.028398
    },
    {
      "display": "79th Street",
      "name": "79 St",
      "gtfsStopId": "B18",
      "latitude": 40.613501,
      "longitude": -74.00061
    },
    {
      "display": "72nd Street",
      "name": "72 St",
      "gtfsStopId": "Q03",
      "latitude": 40.768799,
      "longitude": -73.958424
    },
    {
      "display": "66th Street-Lincoln Center",
      "name": "66 St-Lincoln Center",
      "gtfsStopId": "124",
      "latitude": 40.77344,
      "longitude": -73.982209
    },
    {
      "display": "59th Street-Columbus Circle",
      "name": "59 St-Columbus Circle",
      "gtfsStopId": "A24",
      "latitude": 40.768296,
      "longitude": -73.981736
    },
    {
      "display": "50th Street",
      "name": "50 St",
      "gtfsStopId": "B14",
      "latitude": 40.63626,
      "longitude": -73.994791
    },
    {
      "display": "Times Square-42nd Street",
      "name": "Times Sq-42 St",
      "gtfsStopId": "R16",
      "latitude": 40.754672,
      "longitude": -73.986754
    },
    {
      "display": "34th Street-Penn Station",
      "name": "34 St-Penn Station",
      "gtfsStopId": "A28",
      "latitude": 40.752287,
      "longitude": -73.993391
    },
    {
      "display": "28th Street",
      "name": "28 St",
      "gtfsStopId": "R18",
      "latitude": 40.745494,
      "longitude": -73.988691
    },
    {
      "display": "23rd Street",
      "name": "23 St",
      "gtfsStopId": "R19",
      "latitude": 40.741303,
      "longitude": -73.989344
    },
    {
      "display": "18th Street",
      "name": "18 St",
      "gtfsStopId": "131",
      "latitude": 40.74104,
      "longitude": -73.997871
    },
    {
      "display": "14th Street",
      "name": "14 St",
      "gtfsStopId": "D19",
      "latitude": 40.738228,
      "longitude": -73.996209
    },
    {
      "display": "Christopher St-Stonewall",
      "name": "Christopher St-Stonewall",
      "gtfsStopId": "133",
      "latitude": 40.733422,
      "longitude": -74.002906
    },
    {
      "display": "Houston Street",
      "name": "Houston St",
      "gtfsStopId": "134",
      "latitude": 40.728251,
      "longitude": -74.005367
    },
    {
      "display": "Canal Street",
      "name": "Canal St",
      "gtfsStopId": "R23",
      "latitude": 40.719527,
      "longitude": -74.001775
    },
    {
      "display": "Franklin Street",
      "name": "Franklin St",
      "gtfsStopId": "136",
      "latitude": 40.719318,
      "longitude": -74.006886
    },
    {
      "display": "Chambers Street",
      "name": "Chambers St",
      "gtfsStopId": "M21",
      "latitude": 40.713243,
      "longitude": -74.003401
    },
    {
      "display": "Cortlandt Street",
      "name": "WTC Cortlandt",
      "gtfsStopId": "138",
      "latitude": 40.711835,
      "longitude": -74.012188
    },
    {
      "display": "Rector Street",
      "name": "Rector St",
      "gtfsStopId": "R26",
      "latitude": 40.70722,
      "longitude": -74.013342
    },
    {
      "display": "South Ferry",
      "name": "South Ferry",
      "gtfsStopId": "142",
      "latitude": 40.702068,
      "longitude": -74.013664
    }
  ],
  "2": [
    {
      "display": "Wakefield-241st Street",
      "name": "Wakefield-241 St",
      "gtfsStopId": "201",
      "latitude": 40.903125,
      "longitude": -73.85062
    },
    {
      "display": "Nereid Avenue",
      "name": "Nereid Av",
      "gtfsStopId": "204",
      "latitude": 40.898379,
      "longitude": -73.854376
    },
    {
      "display": "233rd Street",
      "name": "233 St",
      "gtfsStopId": "205",
      "latitude": 40.893193,
      "longitude": -73.857473
    },
    {
      "display": "225th Street",
      "name": "225 St",
      "gtfsStopId": "206",
      "latitude": 40.888022,
      "longitude": -73.860341
    },
    {
      "display": "219th Street",
      "name": "219 St",
      "gtfsStopId": "207",
      "latitude": 40.883895,
      "longitude": -73.862633
    },
    {
      "display": "Gun Hill Road",
      "name": "Gun Hill Rd",
      "gtfsStopId": "503",
      "latitude": 40.869526,
      "longitude": -73.846384
    },
    {
      "display": "Burke Avenue",
      "name": "Burke Av",
      "gtfsStopId": "209",
      "latitude": 40.871356,
      "longitude": -73.867164
    },
    {
      "display": "Allerton Avenue",
      "name": "Allerton Av",
      "gtfsStopId": "210",
      "latitude": 40.865462,
      "longitude": -73.867352
    },
    {
      "display": "Pelham Parkway",
      "name": "Pelham Pkwy",
      "gtfsStopId": "504",
      "latitude": 40.858985,
      "longitude": -73.855359
    },
    {
      "display": "Bronx Park East",
      "name": "Bronx Park East",
      "gtfsStopId": "212",
      "latitude": 40.848828,
      "longitude": -73.868457
    },
    {
      "display": "East 180th Street",
      "name": "E 180 St",
      "gtfsStopId": "213",
      "latitude": 40.841894,
      "longitude": -73.873488
    },
    {
      "display": "West Farms Square-East Tremont Avenue",
      "name": "West Farms Sq-E Tremont Av",
      "gtfsStopId": "214",
      "latitude": 40.840295,
      "longitude": -73.880049
    },
    {
      "display": "174th Street",
      "name": "174 St",
      "gtfsStopId": "215",
      "latitude": 40.837288,
      "longitude": -73.887734
    },
    {
      "display": "Freeman Street",
      "name": "Freeman St",
      "gtfsStopId": "216",
      "latitude": 40.829993,
      "longitude": -73.891865
    },
    {
      "display": "Simpson Street",
      "name": "Simpson St",
      "gtfsStopId": "217",
      "latitude": 40.824073,
      "longitude": -73.893064
    },
    {
      "display": "Intervale Avenue",
      "name": "Intervale Av",
      "gtfsStopId": "218",
      "latitude": 40.822181,
      "longitude": -73.896736
    },
    {
      "display": "Prospect Avenue",
      "name": "Prospect Av",
      "gtfsStopId": "R34",
      "latitude": 40.665414,
      "longitude": -73.992872
    },
    {
      "display": "Jackson Avenue",
      "name": "Jackson Av",
      "gtfsStopId": "220",
      "latitude": 40.81649,
      "longitude": -73.907807
    },
    {
      "display": "3rd Avenue-149th Street",
      "name": "3 Av-149 St",
      "gtfsStopId": "221",
      "latitude": 40.816109,
      "longitude": -73.917757
    },
    {
      "display": "149th Street-Grand Concourse",
      "name": "149 St-Grand Concourse",
      "gtfsStopId": "415",
      "latitude": 40.818375,
      "longitude": -73.927351
    },
    {
      "display": "135th Street",
      "name": "135 St",
      "gtfsStopId": "A14",
      "latitude": 40.817894,
      "longitude": -73.947649
    },
    {
      "display": "125th Street",
      "name": "125 St",
      "gtfsStopId": "A15",
      "latitude": 40.811109,
      "longitude": -73.952343
    },
    {
      "display": "116th Street",
      "name": "116 St",
      "gtfsStopId": "A16",
      "latitude": 40.805085,
      "longitude": -73.954882
    },
    {
      "display": "110 St-Malcom X Plaza",
      "name": "110 St-Malcolm X Plaza",
      "gtfsStopId": "227",
      "latitude": 40.799075,
      "longitude": -73.951822
    },
    {
      "display": "96th Street",
      "name": "96 St",
      "gtfsStopId": "Q05",
      "latitude": 40.784318,
      "longitude": -73.947152
    },
    {
      "display": "72nd Street",
      "name": "72 St",
      "gtfsStopId": "Q03",
      "latitude": 40.768799,
      "longitude": -73.958424
    },
    {
      "display": "Times Square-42nd Street",
      "name": "Times Sq-42 St",
      "gtfsStopId": "R16",
      "latitude": 40.754672,
      "longitude": -73.986754
    },
    {
      "display": "34th Street-Penn Station",
      "name": "34 St-Penn Station",
      "gtfsStopId": "A28",
      "latitude": 40.752287,
      "longitude": -73.993391
    },
    {
      "display": "14th Street",
      "name": "14 St",
      "gtfsStopId": "D19",
      "latitude": 40.738228,
      "longitude": -73.996209
    },
    {
      "display": "Chambers Street",
      "name": "Chambers St",
      "gtfsStopId": "M21",
      "latitude": 40.713243,
      "longitude": -74.003401
    },
    {
      "display": "Park Place",
      "name": "Park Place",
      "gtfsStopId": "228",
      "latitude": 40.713051,
      "longitude": -74.008811
    },
    {
      "display": "Fulton Street",
      "name": "Fulton St",
      "gtfsStopId": "M22",
      "latitude": 40.710374,
      "longitude": -74.007582
    },
    {
      "display": "Wall Street",
      "name": "Wall St",
      "gtfsStopId": "419",
      "latitude": 40.707557,
      "longitude": -74.011862
    },
    {
      "display": "Clark Street",
      "name": "Clark St",
      "gtfsStopId": "231",
      "latitude": 40.697466,
      "longitude": -73.993086
    },
    {
      "display": "Court St-Borough Hall",
      "name": "Court St",
      "gtfsStopId": "R28",
      "latitude": 40.694100,
      "longitude": -73.991777
    },
    {
      "display": "Hoyt Street",
      "name": "Hoyt St",
      "gtfsStopId": "233",
      "latitude": 40.690545,
      "longitude": -73.985065
    },
    {
      "display": "Nevins Street",
      "name": "Nevins St",
      "gtfsStopId": "234",
      "latitude": 40.688246,
      "longitude": -73.980492
    },
    {
      "display": "Atlantic Avenue-Barclays Center",
      "name": "Atlantic Av-Barclays Ctr",
      "gtfsStopId": "R31",
      "latitude": 40.683666,
      "longitude": -73.97881
    },
    {
      "display": "Bergen Street",
      "name": "Bergen St",
      "gtfsStopId": "F20",
      "latitude": 40.686145,
      "longitude": -73.990862
    },
    {
      "display": "Grand Army Plaza",
      "name": "Grand Army Plaza",
      "gtfsStopId": "237",
      "latitude": 40.675235,
      "longitude": -73.971046
    },
    {
      "display": "Eastern Parkway-Brooklyn Museum",
      "name": "Eastern Pkwy-Brooklyn Museum",
      "gtfsStopId": "238",
      "latitude": 40.671987,
      "longitude": -73.964375
    },
    {
      "display": "Franklin Avenue-Medgar Evers College",
      "name": "Franklin Av-Medgar Evers College",
      "gtfsStopId": "239",
      "latitude": 40.670682,
      "longitude": -73.958131
    },
    {
      "display": "President Street-Medgar Evers College",
      "name": "President St-Medgar Evers College",
      "gtfsStopId": "241",
      "latitude": 40.667883,
      "longitude": -73.950683
    },
    {
      "display": "Sterling Street",
      "name": "Sterling St",
      "gtfsStopId": "242",
      "latitude": 40.662742,
      "longitude": -73.95085
    },
    {
      "display": "Winthrop Street",
      "name": "Winthrop St",
      "gtfsStopId": "243",
      "latitude": 40.656652,
      "longitude": -73.9502
    },
    {
      "display": "Church Avenue",
      "name": "Church Av",
      "gtfsStopId": "F27",
      "latitude": 40.644041,
      "longitude": -73.979678
    },
    {
      "display": "Beverly Road",
      "name": "Beverly Rd",
      "gtfsStopId": "245",
      "latitude": 40.645098,
      "longitude": -73.948959
    },
    {
      "display": "Newkirk Avenue-Little Haiti",
      "name": "Newkirk Av-Little Haiti",
      "gtfsStopId": "246",
      "latitude": 40.639967,
      "longitude": -73.948411
    },
    {
      "display": "Flatbush Avenue-Brooklyn College",
      "name": "Flatbush Av-Brooklyn College",
      "gtfsStopId": "247",
      "latitude": 40.632836,
      "longitude": -73.947642
    }
  ],
  "3": [
    {
      "display": "Harlem-148th Street",
      "name": "Harlem-148 St",
      "gtfsStopId": "301",
      "latitude": 40.82388,
      "longitude": -73.93647
    },
    {
      "display": "145th Street",
      "name": "145 St",
      "gtfsStopId": "D13",
      "latitude": 40.824783,
      "longitude": -73.944216
    },
    {
      "display": "135th Street",
      "name": "135 St",
      "gtfsStopId": "A14",
      "latitude": 40.817894,
      "longitude": -73.947649
    },
    {
      "display": "125th Street",
      "name": "125 St",
      "gtfsStopId": "A15",
      "latitude": 40.811109,
      "longitude": -73.952343
    },
    {
      "display": "116th Street",
      "name": "116 St",
      "gtfsStopId": "A16",
      "latitude": 40.805085,
      "longitude": -73.954882
    },
    {
      "display": "110 St-Malcom X Plaza",
      "name": "110 St-Malcolm X Plaza",
      "gtfsStopId": "227",
      "latitude": 40.799075,
      "longitude": -73.951822
    },
    {
      "display": "96th Street",
      "name": "96 St",
      "gtfsStopId": "Q05",
      "latitude": 40.784318,
      "longitude": -73.947152
    },
    {
      "display": "72nd Street",
      "name": "72 St",
      "gtfsStopId": "Q03",
      "latitude": 40.768799,
      "longitude": -73.958424
    },
    {
      "display": "Times Square-42nd Street",
      "name": "Times Sq-42 St",
      "gtfsStopId": "R16",
      "latitude": 40.754672,
      "longitude": -73.986754
    },
    {
      "display": "34th Street-Penn Station",
      "name": "34 St-Penn Station",
      "gtfsStopId": "A28",
      "latitude": 40.752287,
      "longitude": -73.993391
    },
    {
      "display": "14th Street",
      "name": "14 St",
      "gtfsStopId": "D19",
      "latitude": 40.738228,
      "longitude": -73.996209
    },
    {
      "display": "Chambers Street",
      "name": "Chambers St",
      "gtfsStopId": "M21",
      "latitude": 40.713243,
      "longitude": -74.003401
    },
    {
      "display": "Park Place",
      "name": "Park Pl",
      "gtfsStopId": "S03",
      "latitude": 40.674772,
      "longitude": -73.957624
    },
    {
      "display": "Fulton Street",
      "name": "Fulton St",
      "gtfsStopId": "M22",
      "latitude": 40.710374,
      "longitude": -74.007582
    },
    {
      "display": "Wall Street",
      "name": "Wall St",
      "gtfsStopId": "419",
      "latitude": 40.707557,
      "longitude": -74.011862
    },
    {
      "display": "Clark Street",
      "name": "Clark St",
      "gtfsStopId": "231",
      "latitude": 40.697466,
      "longitude": -73.993086
    },
    {
      "display": "Court St-Borough Hall",
      "name": "Court St",
      "gtfsStopId": "R28",
      "latitude": 40.694100,
      "longitude": -73.991777
    },
    {
      "display": "Hoyt Street",
      "name": "Hoyt St",
      "gtfsStopId": "233",
      "latitude": 40.690545,
      "longitude": -73.985065
    },
    {
      "display": "Nevins Street",
      "name": "Nevins St",
      "gtfsStopId": "234",
      "latitude": 40.688246,
      "longitude": -73.980492
    },
    {
      "display": "Atlantic Avenue-Barclays Center",
      "name": "Atlantic Av-Barclays Ctr",
      "gtfsStopId": "R31",
      "latitude": 40.683666,
      "longitude": -73.97881
    },
    {
      "display": "Bergen Street",
      "name": "Bergen St",
      "gtfsStopId": "F20",
      "latitude": 40.686145,
      "longitude": -73.990862
    },
    {
      "display": "Grand Army Plaza",
      "name": "Grand Army Plaza",
      "gtfsStopId": "237",
      "latitude": 40.675235,
      "longitude": -73.971046
    },
    {
      "display": "Eastern Parkway-Brooklyn Museum",
      "name": "Eastern Pkwy-Brooklyn Museum",
      "gtfsStopId": "238",
      "latitude": 40.671987,
      "longitude": -73.964375
    },
    {
      "display": "Franklin Avenue-Medgar Evers College",
      "name": "Franklin Av-Medgar Evers College",
      "gtfsStopId": "239",
      "latitude": 40.670682,
      "longitude": -73.958131
    },
    {
      "display": "Nostrand Avenue",
      "name": "Nostrand Av",
      "gtfsStopId": "A46",
      "latitude": 40.680438,
      "longitude": -73.950426
    },
    {
      "display": "Kingston Avenue",
      "name": "Kingston Av",
      "gtfsStopId": "249",
      "latitude": 40.669399,
      "longitude": -73.942161
    },
    {
      "display": "Crown Heights-Utica Avenue",
      "name": "Crown Hts-Utica Av",
      "gtfsStopId": "250",
      "latitude": 40.668897,
      "longitude": -73.932942
    },
    {
      "display": "Sutter Avenue-Rutland Road",
      "name": "Sutter Av-Rutland Rd",
      "gtfsStopId": "251",
      "latitude": 40.664717,
      "longitude": -73.92261
    },
    {
      "display": "Saratoga Avenue",
      "name": "Saratoga Av",
      "gtfsStopId": "252",
      "latitude": 40.661453,
      "longitude": -73.916327
    },
    {
      "display": "Rockaway Avenue",
      "name": "Rockaway Av",
      "gtfsStopId": "A50",
      "latitude": 40.67834,
      "longitude": -73.911946
    },
    {
      "display": "Livonia Avenue",
      "name": "Livonia Av",
      "gtfsStopId": "L26",
      "latitude": 40.664038,
      "longitude": -73.900571
    },
    {
      "display": "Pennsylvania Avenue",
      "name": "Pennsylvania Av",
      "gtfsStopId": "255",
      "latitude": 40.664635,
      "longitude": -73.894895
    },
    {
      "display": "Van Siclen Avenue",
      "name": "Van Siclen Av",
      "gtfsStopId": "J23",
      "latitude": 40.678024,
      "longitude": -73.891688
    },
    {
      "display": "New Lots Avenue",
      "name": "New Lots Av",
      "gtfsStopId": "L27",
      "latitude": 40.658733,
      "longitude": -73.899232
    }
  ],
  "4": [
    {
      "display": "Woodlawn",
      "name": "Woodlawn",
      "gtfsStopId": "401",
      "latitude": 40.886037,
      "longitude": -73.878751
    },
    {
      "display": "Mosholu Parkway",
      "name": "Mosholu Pkwy",
      "gtfsStopId": "402",
      "latitude": 40.87975,
      "longitude": -73.884655
    },
    {
      "display": "Bedford Park Boulevard-Lehman College",
      "name": "Bedford Park Blvd-Lehman College",
      "gtfsStopId": "405",
      "latitude": 40.873412,
      "longitude": -73.890064
    },
    {
      "display": "Kingsbridge Road",
      "name": "Kingsbridge Rd",
      "gtfsStopId": "406",
      "latitude": 40.867760,
      "longitude": -73.897174
    },
    {
      "display": "Fordham Road",
      "name": "Fordham Rd",
      "gtfsStopId": "D05",
      "latitude": 40.861296,
      "longitude": -73.897749
    },
    {
      "display": "183rd Street",
      "name": "183 St",
      "gtfsStopId": "408",
      "latitude": 40.858407,
      "longitude": -73.903879
    },
    {
      "display": "Burnside Avenue",
      "name": "Burnside Av",
      "gtfsStopId": "409",
      "latitude": 40.853453,
      "longitude": -73.907684
    },
    {
      "display": "176th Street",
      "name": "176 St",
      "gtfsStopId": "410",
      "latitude": 40.84848,
      "longitude": -73.911794
    },
    {
      "display": "Mt. Eden Avenue",
      "name": "Mt Eden Av",
      "gtfsStopId": "411",
      "latitude": 40.844434,
      "longitude": -73.914685
    },
    {
      "display": "170th Street",
      "name": "170 St",
      "gtfsStopId": "D09",
      "latitude": 40.839306,
      "longitude": -73.9134
    },
    {
      "display": "167th Street",
      "name": "167 St",
      "gtfsStopId": "D10",
      "latitude": 40.833771,
      "longitude": -73.91844
    },
    {
      "display": "161st Street-Yankee Stadium",
      "name": "161 St-Yankee Stadium",
      "gtfsStopId": "D11",
      "latitude": 40.827905,
      "longitude": -73.925651
    },
    {
      "display": "149th Street-Grand Concourse",
      "name": "149 St-Grand Concourse",
      "gtfsStopId": "415",
      "latitude": 40.818375,
      "longitude": -73.927351
    },
    {
      "display": "138th Street-Grand Concourse",
      "name": "138 St-Grand Concourse",
      "gtfsStopId": "416",
      "latitude": 40.813224,
      "longitude": -73.929849
    },
    {
      "display": "125th Street",
      "name": "125 St",
      "gtfsStopId": "A15",
      "latitude": 40.811109,
      "longitude": -73.952343
    },
    {
      "display": "86th Street",
      "name": "86 St",
      "gtfsStopId": "R44",
      "latitude": 40.622687,
      "longitude": -74.028398
    },
    {
      "display": "59th Street",
      "name": "Lexington Av/59 St",
      "gtfsStopId": "R11",
      "latitude": 40.76266,
      "longitude": -73.967258
    },
    {
      "display": "42nd Street-Grand Central",
      "name": "Grand Central-42 St",
      "gtfsStopId": "901",
      "latitude": 40.752769,
      "longitude": -73.979189
    },
    {
      "display": "14th Street-Union Square",
      "name": "14 St-Union Sq",
      "gtfsStopId": "R20",
      "latitude": 40.735736,
      "longitude": -73.990568
    },
    {
      "display": "Brooklyn Bridge-City Hall",
      "name": "Brooklyn Bridge-City Hall / Chambers St",
      "gtfsStopId": "640",
      "latitude": 40.713065,
      "longitude": -74.004131
    },
    {
      "display": "Fulton Street",
      "name": "Fulton St",
      "gtfsStopId": "M22",
      "latitude": 40.710374,
      "longitude": -74.007582
    },
    {
      "display": "Wall Street",
      "name": "Wall St",
      "gtfsStopId": "419",
      "latitude": 40.707557,
      "longitude": -74.011862
    },
    {
      "display": "Bowling Green",
      "name": "Bowling Green",
      "gtfsStopId": "420",
      "latitude": 40.704817,
      "longitude": -74.014065
    },
    {
      "display": "Court St-Borough Hall",
      "name": "Court St",
      "gtfsStopId": "R28",
      "latitude": 40.694100,
      "longitude": -73.991777
    },
    {
      "display": "Nevins Street",
      "name": "Nevins St",
      "gtfsStopId": "234",
      "latitude": 40.688246,
      "longitude": -73.980492
    },
    {
      "display": "Atlantic Avenue-Barclays Center",
      "name": "Atlantic Av-Barclays Ctr",
      "gtfsStopId": "R31",
      "latitude": 40.683666,
      "longitude": -73.97881
    },
    {
      "display": "Franklin Avenue-Medgar Evers College",
      "name": "Franklin Av-Medgar Evers College",
      "gtfsStopId": "239",
      "latitude": 40.670682,
      "longitude": -73.958131
    },
    {
      "display": "Crown Heights-Utica Avenue",
      "name": "Crown Hts-Utica Av",
      "gtfsStopId": "250",
      "latitude": 40.668897,
      "longitude": -73.932942
    },
    {
      "display": "Sutter Avenue-Rutland Road",
      "name": "Sutter Av-Rutland Rd",
      "gtfsStopId": "251",
      "latitude": 40.664717,
      "longitude": -73.92261
    },
    {
      "display": "Saratoga Avenue",
      "name": "Saratoga Av",
      "gtfsStopId": "252",
      "latitude": 40.661453,
      "longitude": -73.916327
    },
    {
      "display": "Rockaway Avenue",
      "name": "Rockaway Av",
      "gtfsStopId": "A50",
      "latitude": 40.67834,
      "longitude": -73.911946
    },
    {
      "display": "Livonia Avenue",
      "name": "Livonia Av",
      "gtfsStopId": "L26",
      "latitude": 40.664038,
      "longitude": -73.900571
    },
    {
      "display": "Pennsylvania Avenue",
      "name": "Pennsylvania Av",
      "gtfsStopId": "255",
      "latitude": 40.664635,
      "longitude": -73.894895
    },
    {
      "display": "Van Siclen Avenue",
      "name": "Van Siclen Av",
      "gtfsStopId": "J23",
      "latitude": 40.678024,
      "longitude": -73.891688
    },
    {
      "display": "New Lots Avenue",
      "name": "New Lots Av",
      "gtfsStopId": "L27",
      "latitude": 40.658733,
      "longitude": -73.899232
    }
  ],
  "5": [
    {
      "display": "Eastchester-Dyre Avenue",
      "name": "Eastchester-Dyre Av",
      "gtfsStopId": "501",
      "latitude": 40.8883,
      "longitude": -73.830834
    },
    {
      "display": "Baychester Avenue",
      "name": "Baychester Av",
      "gtfsStopId": "502",
      "latitude": 40.878663,
      "longitude": -73.838591
    },
    {
      "display": "Gun Hill Road",
      "name": "Gun Hill Rd",
      "gtfsStopId": "503",
      "latitude": 40.869526,
      "longitude": -73.846384
    },
    {
      "display": "Pelham Parkway",
      "name": "Pelham Pkwy",
      "gtfsStopId": "504",
      "latitude": 40.858985,
      "longitude": -73.855359
    },
    {
      "display": "Morris Park",
      "name": "Morris Park",
      "gtfsStopId": "505",
      "latitude": 40.854364,
      "longitude": -73.860495
    },
    {
      "display": "East 180th Street",
      "name": "E 180 St",
      "gtfsStopId": "213",
      "latitude": 40.841894,
      "longitude": -73.873488
    },
    {
      "display": "West Farms Square-East Tremont Avenue",
      "name": "West Farms Sq-E Tremont Av",
      "gtfsStopId": "214",
      "latitude": 40.840295,
      "longitude": -73.880049
    },
    {
      "display": "174th Street",
      "name": "174 St",
      "gtfsStopId": "215",
      "latitude": 40.837288,
      "longitude": -73.887734
    },
    {
      "display": "Freeman Street",
      "name": "Freeman St",
      "gtfsStopId": "216",
      "latitude": 40.829993,
      "longitude": -73.891865
    },
    {
      "display": "Simpson Street",
      "name": "Simpson St",
      "gtfsStopId": "217",
      "latitude": 40.824073,
      "longitude": -73.893064
    },
    {
      "display": "Intervale Avenue",
      "name": "Intervale Av",
      "gtfsStopId": "218",
      "latitude": 40.822181,
      "longitude": -73.896736
    },
    {
      "display": "Prospect Avenue",
      "name": "Prospect Av",
      "gtfsStopId": "R34",
      "latitude": 40.665414,
      "longitude": -73.992872
    },
    {
      "display": "Jackson Avenue",
      "name": "Jackson Av",
      "gtfsStopId": "220",
      "latitude": 40.81649,
      "longitude": -73.907807
    },
    {
      "display": "3rd Avenue-149th Street",
      "name": "3 Av-149 St",
      "gtfsStopId": "221",
      "latitude": 40.816109,
      "longitude": -73.917757
    },
    {
      "display": "149th Street-Grand Concourse",
      "name": "149 St-Grand Concourse",
      "gtfsStopId": "415",
      "latitude": 40.818375,
      "longitude": -73.927351
    },
    {
      "display": "138th Street-Grand Concourse",
      "name": "138 St-Grand Concourse",
      "gtfsStopId": "416",
      "latitude": 40.813224,
      "longitude": -73.929849
    },
    {
      "display": "125th Street",
      "name": "125 St",
      "gtfsStopId": "A15",
      "latitude": 40.811109,
      "longitude": -73.952343
    },
    {
      "display": "86th Street",
      "name": "86 St",
      "gtfsStopId": "R44",
      "latitude": 40.622687,
      "longitude": -74.028398
    },
    {
      "display": "59th Street",
      "name": "Lexington Av/59 St",
      "gtfsStopId": "R11",
      "latitude": 40.76266,
      "longitude": -73.967258
    },
    {
      "display": "42nd Street-Grand Central",
      "name": "42 St-Grand Central",
      "gtfsStopId": "901",
      "latitude": 40.752769,
      "longitude": -73.979189
    },
    {
      "display": "14th Street-Union Square",
      "name": "14 St-Union Sq",
      "gtfsStopId": "R20",
      "latitude": 40.735736,
      "longitude": -73.990568
    },
    {
      "display": "Brooklyn Bridge-City Hall",
      "name": "Brooklyn Bridge-City Hall / Chambers St",
      "gtfsStopId": "640",
      "latitude": 40.713065,
      "longitude": -74.004131
    },
    {
      "display": "Fulton Street",
      "name": "Fulton St",
      "gtfsStopId": "M22",
      "latitude": 40.710374,
      "longitude": -74.007582
    },
    {
      "display": "Wall Street",
      "name": "Wall St",
      "gtfsStopId": "419",
      "latitude": 40.707557,
      "longitude": -74.011862
    },
    {
      "display": "Bowling Green",
      "name": "Bowling Green",
      "gtfsStopId": "420",
      "latitude": 40.704817,
      "longitude": -74.014065
    },
    {
      "display": "Court St-Borough Hall",
      "name": "Court St",
      "gtfsStopId": "R28",
      "latitude": 40.694100,
      "longitude": -73.991777
    },
    {
      "display": "Nevins Street",
      "name": "Nevins St",
      "gtfsStopId": "234",
      "latitude": 40.688246,
      "longitude": -73.980492
    },
    {
      "display": "Atlantic Avenue-Barclays Center",
      "name": "Atlantic Av-Barclays Ctr",
      "gtfsStopId": "R31",
      "latitude": 40.683666,
      "longitude": -73.97881
    },
    {
      "display": "Franklin Avenue-Medgar Evers College",
      "name": "Franklin Av-Medgar Evers College",
      "gtfsStopId": "239",
      "latitude": 40.670682,
      "longitude": -73.958131
    },
    {
      "display": "Crown Heights-Utica Avenue",
      "name": "Crown Hts-Utica Av",
      "gtfsStopId": "250",
      "latitude": 40.668897,
      "longitude": -73.932942
    }
  ],
  "6": [
    {
      "display": "Pelham Bay Park",
      "name": "Pelham Bay Park",
      "gtfsStopId": "601",
      "latitude": 40.852462,
      "longitude": -73.828121
    },
    {
      "display": "Buhre Avenue",
      "name": "Buhre Av",
      "gtfsStopId": "602",
      "latitude": 40.84681,
      "longitude": -73.832569
    },
    {
      "display": "Middletown Road",
      "name": "Middletown Rd",
      "gtfsStopId": "603",
      "latitude": 40.843863,
      "longitude": -73.836322
    },
    {
      "display": "Westchester Square-East Tremont Avenue",
      "name": "Westchester Sq-E Tremont Av",
      "gtfsStopId": "604",
      "latitude": 40.839892,
      "longitude": -73.842952
    },
    {
      "display": "Zerega Avenue",
      "name": "Zerega Av",
      "gtfsStopId": "606",
      "latitude": 40.836488,
      "longitude": -73.847036
    },
    {
      "display": "Castle Hill Avenue",
      "name": "Castle Hill Av",
      "gtfsStopId": "607",
      "latitude": 40.834255,
      "longitude": -73.851222
    },
    {
      "display": "Parkchester",
      "name": "Parkchester",
      "gtfsStopId": "608",
      "latitude": 40.833226,
      "longitude": -73.860816
    },
    {
      "display": "St. Lawrence Avenue",
      "name": "St Lawrence Av",
      "gtfsStopId": "609",
      "latitude": 40.831509,
      "longitude": -73.867618
    },
    {
      "display": "Morrison Avenue-Soundview",
      "name": "Morrison Av-Soundview",
      "gtfsStopId": "610",
      "latitude": 40.829521,
      "longitude": -73.874516
    },
    {
      "display": "Elder Avenue",
      "name": "Elder Av",
      "gtfsStopId": "611",
      "latitude": 40.828584,
      "longitude": -73.879159
    },
    {
      "display": "Whitlock Avenue",
      "name": "Whitlock Av",
      "gtfsStopId": "612",
      "latitude": 40.826525,
      "longitude": -73.886283
    },
    {
      "display": "Hunts Point Avenue",
      "name": "Hunts Point Av",
      "gtfsStopId": "613",
      "latitude": 40.820948,
      "longitude": -73.890549
    },
    {
      "display": "Longwood Avenue",
      "name": "Longwood Av",
      "gtfsStopId": "614",
      "latitude": 40.816104,
      "longitude": -73.896435
    },
    {
      "display": "E. 149th Street",
      "name": "E 149 St",
      "gtfsStopId": "615",
      "latitude": 40.812118,
      "longitude": -73.904098
    },
    {
      "display": "Brook Avenue",
      "name": "Brook Av",
      "gtfsStopId": "618",
      "latitude": 40.807566,
      "longitude": -73.91924
    },
    {
      "display": "3rd Avenue-138th Street",
      "name": "3 Av-138 St",
      "gtfsStopId": "619",
      "latitude": 40.810476,
      "longitude": -73.926138
    },
    {
      "display": "125th Street",
      "name": "125 St",
      "gtfsStopId": "A15",
      "latitude": 40.811109,
      "longitude": -73.952343
    },
    {
      "display": "116th Street",
      "name": "116 St",
      "gtfsStopId": "A16",
      "latitude": 40.805085,
      "longitude": -73.954882
    },
    {
      "display": "110th Street",
      "name": "110 St",
      "gtfsStopId": "623",
      "latitude": 40.79502,
      "longitude": -73.94425
    },
    {
      "display": "103rd Street",
      "name": "103 St",
      "gtfsStopId": "A18",
      "latitude": 40.796092,
      "longitude": -73.961454
    },
    {
      "display": "96th Street",
      "name": "96 St",
      "gtfsStopId": "Q05",
      "latitude": 40.784318,
      "longitude": -73.947152
    },
    {
      "display": "86th Street",
      "name": "86 St",
      "gtfsStopId": "R44",
      "latitude": 40.622687,
      "longitude": -74.028398
    },
    {
      "display": "77th Street",
      "name": "77 St",
      "gtfsStopId": "R43",
      "latitude": 40.629742,
      "longitude": -74.02551
    },
    {
      "display": "68th Street-Hunter College",
      "name": "68 St-Hunter College",
      "gtfsStopId": "628",
      "latitude": 40.768141,
      "longitude": -73.96387
    },
    {
      "display": "59th Street",
      "name": "Lexington Av/59 St",
      "gtfsStopId": "R11",
      "latitude": 40.76266,
      "longitude": -73.967258
    },
    {
      "display": "51st Street",
      "name": "51 St / Lexington Av/53 St",
      "gtfsStopId": "F11",
      "latitude": 40.757552,
      "longitude": -73.969055
    },
    {
      "display": "Grand Central-42nd Street",
      "name": "Grand Central-42 St",
      "gtfsStopId": "901",
      "latitude": 40.752769,
      "longitude": -73.979189
    },
    {
      "display": "33rd Street",
      "name": "33 St",
      "gtfsStopId": "632",
      "latitude": 40.746081,
      "longitude": -73.982076
    },
    {
      "display": "28th Street",
      "name": "28 St",
      "gtfsStopId": "R18",
      "latitude": 40.745494,
      "longitude": -73.988691
    },
    {
      "display": "23rd Street",
      "name": "23 St",
      "gtfsStopId": "R19",
      "latitude": 40.741303,
      "longitude": -73.989344
    },
    {
      "display": "14th Street-Union Square",
      "name": "14 St-Union Sq",
      "gtfsStopId": "R20",
      "latitude": 40.735736,
      "longitude": -73.990568
    },
    {
      "display": "Astor Place",
      "name": "Astor Pl",
      "gtfsStopId": "636",
      "latitude": 40.730054,
      "longitude": -73.99107
    },
    {
      "display": "Bleecker Street",
      "name": "Bleecker St / Broadway-Lafayette St",
      "gtfsStopId": "637",
      "latitude": 40.725915,
      "longitude": -73.994659
    },
    {
      "display": "Spring Street",
      "name": "Spring St",
      "gtfsStopId": "A33",
      "latitude": 40.726227,
      "longitude": -74.003739
    },
    {
      "display": "Canal Street",
      "name": "Canal St",
      "gtfsStopId": "R23",
      "latitude": 40.719527,
      "longitude": -74.001775
    },
    {
      "display": "Brooklyn Bridge-City Hall",
      "name": "Brooklyn Bridge-City Hall / Chambers St",
      "gtfsStopId": "640",
      "latitude": 40.713065,
      "longitude": -74.004131
    }
  ],
  "7": [
    {
      "display": "Flushing-Main Street",
      "name": "Flushing-Main St",
      "gtfsStopId": "701",
      "latitude": 40.7596,
      "longitude": -73.83003
    },
    {
      "display": "Mets-Willets Point",
      "name": "Mets-Willets Point",
      "gtfsStopId": "702",
      "latitude": 40.754622,
      "longitude": -73.845625
    },
    {
      "display": "111th Street",
      "name": "111 St",
      "gtfsStopId": "J13",
      "latitude": 40.697418,
      "longitude": -73.836345
    },
    {
      "display": "103rd Street-Corona Plaza",
      "name": "103 St-Corona Plaza",
      "gtfsStopId": "706",
      "latitude": 40.749865,
      "longitude": -73.8627
    },
    {
      "display": "Junction Boulevard",
      "name": "Junction Blvd",
      "gtfsStopId": "707",
      "latitude": 40.749145,
      "longitude": -73.869527
    },
    {
      "display": "90th Street-Elmhurst Avenue",
      "name": "90 St-Elmhurst Av",
      "gtfsStopId": "708",
      "latitude": 40.748408,
      "longitude": -73.876613
    },
    {
      "display": "82nd Street-Jackson Heights",
      "name": "82 St-Jackson Hts",
      "gtfsStopId": "709",
      "latitude": 40.747659,
      "longitude": -73.883697
    },
    {
      "display": "74th Street-Broadway",
      "name": "74 St-Broadway",
      "gtfsStopId": "710",
      "latitude": 40.746848,
      "longitude": -73.891394
    },
    {
      "display": "69th Street",
      "name": "69 St",
      "gtfsStopId": "711",
      "latitude": 40.746325,
      "longitude": -73.896403
    },
    {
      "display": "61st Street-Woodside",
      "name": "61 St-Woodside",
      "gtfsStopId": "712",
      "latitude": 40.74563,
      "longitude": -73.902984
    },
    {
      "display": "52nd Street",
      "name": "52 St",
      "gtfsStopId": "713",
      "latitude": 40.744149,
      "longitude": -73.912549
    },
    {
      "display": "46th Street-Bliss Street",
      "name": "46 St-Bliss St",
      "gtfsStopId": "714",
      "latitude": 40.743132,
      "longitude": -73.918435
    },
    {
      "display": "40th Street-Lowery Street",
      "name": "40 St-Lowery St",
      "gtfsStopId": "715",
      "latitude": 40.743781,
      "longitude": -73.924016
    },
    {
      "display": "33rd Street-Rawson Street",
      "name": "33 St-Rawson St",
      "gtfsStopId": "716",
      "latitude": 40.744587,
      "longitude": -73.930997
    },
    {
      "display": "Queensboro Plaza",
      "name": "Queensboro Plaza",
      "gtfsStopId": "R09",
      "latitude": 40.750582,
      "longitude": -73.940202
    },
    {
      "display": "Court Square",
      "name": "Court Sq-23 St",
      "gtfsStopId": "F09",
      "latitude": 40.747846,
      "longitude": -73.946
    },
    {
      "display": "Hunters Point Avenue",
      "name": "Hunters Point Av",
      "gtfsStopId": "720",
      "latitude": 40.742216,
      "longitude": -73.948916
    },
    {
      "display": "Vernon Boulevard-Jackson Avenue",
      "name": "Vernon Blvd-Jackson Av",
      "gtfsStopId": "721",
      "latitude": 40.742626,
      "longitude": -73.953581
    },
    {
      "display": "Grand Central-42nd Street",
      "name": "Grand Central-42 St",
      "gtfsStopId": "901",
      "latitude": 40.752769,
      "longitude": -73.979189
    },
    {
      "display": "5th Avenue",
      "name": "5 Av",
      "gtfsStopId": "724",
      "latitude": 40.753821,
      "longitude": -73.981963
    },
    {
      "display": "Times Square-42nd Street",
      "name": "Times Sq-42 St",
      "gtfsStopId": "R16",
      "latitude": 40.754672,
      "longitude": -73.986754
    },
    {
      "display": "34th Street-Hudson Yards",
      "name": "34 St-Hudson Yards",
      "gtfsStopId": "726",
      "latitude": 40.755882,
      "longitude": -74.00191
    }
  ],
  "A": [
    {
      "display": "Inwood-207th Street",
      "name": "Inwood-207 St",
      "gtfsStopId": "A02",
      "latitude": 40.868072,
      "longitude": -73.919899
    },
    {
      "display": "Dyckman Street",
      "name": "Dyckman St",
      "gtfsStopId": "A03",
      "latitude": 40.865491,
      "longitude": -73.927271
    },
    {
      "display": "190th Street",
      "name": "190 St",
      "gtfsStopId": "A05",
      "latitude": 40.859022,
      "longitude": -73.93418
    },
    {
      "display": "181st Street",
      "name": "181 St",
      "gtfsStopId": "A06",
      "latitude": 40.851695,
      "longitude": -73.937969
    },
    {
      "display": "175th Street",
      "name": "175 St",
      "gtfsStopId": "A07",
      "latitude": 40.847391,
      "longitude": -73.939704
    },
    {
      "display": "168th Street",
      "name": "168 St-Washington Hts",
      "gtfsStopId": "112",
      "latitude": 40.840556,
      "longitude": -73.940133
    },
    {
      "display": "145th Street",
      "name": "145 St",
      "gtfsStopId": "D13",
      "latitude": 40.824783,
      "longitude": -73.944216
    },
    {
      "display": "125th Street",
      "name": "125 St",
      "gtfsStopId": "A15",
      "latitude": 40.811109,
      "longitude": -73.952343
    },
    {
      "display": "59th Street-Columbus Circle",
      "name": "59 St-Columbus Circle",
      "gtfsStopId": "A24",
      "latitude": 40.768296,
      "longitude": -73.981736
    },
    {
      "display": "42nd Street-Port Authority Bus Terminal",
      "name": "42 St-Port Authority Bus Terminal",
      "gtfsStopId": "A27",
      "latitude": 40.757308,
      "longitude": -73.989735
    },
    {
      "display": "34th Street-Penn Station",
      "name": "34 St-Penn Station",
      "gtfsStopId": "A28",
      "latitude": 40.752287,
      "longitude": -73.993391
    },
    {
      "display": "23rd Street",
      "name": "23 St",
      "gtfsStopId": "R19",
      "latitude": 40.741303,
      "longitude": -73.989344
    },
    {
      "display": "14th Street",
      "name": "14 St / 8 Av",
      "gtfsStopId": "221",
      "latitude": 40.816109,
      "longitude": -73.917757
    },
    {
      "display": "West 4th Street-Washington Square",
      "name": "W 4 St-Wash Sq",
      "gtfsStopId": "D20",
      "latitude": 40.732338,
      "longitude": -74.000495
    },
    {
      "display": "Spring Street",
      "name": "Spring St",
      "gtfsStopId": "A33",
      "latitude": 40.726227,
      "longitude": -74.003739
    },
    {
      "display": "Canal Street",
      "name": "Canal St",
      "gtfsStopId": "R23",
      "latitude": 40.719527,
      "longitude": -74.001775
    },
    {
      "display": "Chambers Street",
      "name": "Chambers St",
      "gtfsStopId": "M21",
      "latitude": 40.713243,
      "longitude": -74.003401
    },
    {
      "display": "Fulton Street",
      "name": "Fulton St",
      "gtfsStopId": "M22",
      "latitude": 40.710374,
      "longitude": -74.007582
    },
    {
      "display": "High Street",
      "name": "High St",
      "gtfsStopId": "A40",
      "latitude": 40.699337,
      "longitude": -73.990531
    },
    {
      "display": "Jay Street-MetroTech",
      "name": "Jay St-MetroTech",
      "gtfsStopId": "R29",
      "latitude": 40.69218,
      "longitude": -73.985942
    },
    {
      "display": "Hoyt-Schermerhorn Streets",
      "name": "Hoyt-Schermerhorn Sts",
      "gtfsStopId": "A42",
      "latitude": 40.688484,
      "longitude": -73.985001
    },
    {
      "display": "Lafayette Avenue",
      "name": "Lafayette Av",
      "gtfsStopId": "A43",
      "latitude": 40.686113,
      "longitude": -73.973946
    },
    {
      "display": "Clinton-Washington Avenues",
      "name": "Clinton-Washington Avs",
      "gtfsStopId": "G35",
      "latitude": 40.688089,
      "longitude": -73.966839
    },
    {
      "display": "Franklin Avenue",
      "name": "Franklin Av",
      "gtfsStopId": "S01",
      "latitude": 40.680596,
      "longitude": -73.955827
    },
    {
      "display": "Nostrand Avenue",
      "name": "Nostrand Av",
      "gtfsStopId": "A46",
      "latitude": 40.680438,
      "longitude": -73.950426
    },
    {
      "display": "Utica Avenue",
      "name": "Utica Av",
      "gtfsStopId": "A48",
      "latitude": 40.679364,
      "longitude": -73.930729
    },
    {
      "display": "Broadway Junction",
      "name": "Broadway Junction",
      "gtfsStopId": "L22",
      "latitude": 40.678856,
      "longitude": -73.90324
    },
    {
      "display": "Liberty Avenue",
      "name": "Liberty Av",
      "gtfsStopId": "A52",
      "latitude": 40.674542,
      "longitude": -73.896548
    },
    {
      "display": "Van Siclen Avenue",
      "name": "Van Siclen Av",
      "gtfsStopId": "J23",
      "latitude": 40.678024,
      "longitude": -73.891688
    },
    {
      "display": "Shepherd Avenue",
      "name": "Shepherd Av",
      "gtfsStopId": "A54",
      "latitude": 40.67413,
      "longitude": -73.88075
    },
    {
      "display": "Euclid Avenue",
      "name": "Euclid Av",
      "gtfsStopId": "A55",
      "latitude": 40.675377,
      "longitude": -73.872106
    },
    {
      "display": "Grant Avenue",
      "name": "Grant Av",
      "gtfsStopId": "A57",
      "latitude": 40.677044,
      "longitude": -73.86505
    },
    {
      "display": "80th Street",
      "name": "80 St",
      "gtfsStopId": "A59",
      "latitude": 40.679371,
      "longitude": -73.858992
    },
    {
      "display": "88th Street",
      "name": "88 St",
      "gtfsStopId": "A60",
      "latitude": 40.679843,
      "longitude": -73.85147
    },
    {
      "display": "Rockaway Boulevard",
      "name": "Rockaway Blvd",
      "gtfsStopId": "A61",
      "latitude": 40.680429,
      "longitude": -73.843853
    },
    {
      "display": "104th Street",
      "name": "104 St",
      "gtfsStopId": "J14",
      "latitude": 40.695178,
      "longitude": -73.84433
    },
    {
      "display": "111th Street",
      "name": "111 St",
      "gtfsStopId": "J13",
      "latitude": 40.697418,
      "longitude": -73.836345
    },
    {
      "display": "Ozone Park-Lefferts Boulevard",
      "name": "Ozone Park-Lefferts Blvd",
      "gtfsStopId": "A65",
      "latitude": 40.685951,
      "longitude": -73.825798
    },
    {
      "display": "Aqueduct Racetrack",
      "name": "Aqueduct Racetrack",
      "gtfsStopId": "H01",
      "latitude": 40.672097,
      "longitude": -73.835919
    },
    {
      "display": "Howard Beach-JFK Airport",
      "name": "Howard Beach-JFK Airport",
      "gtfsStopId": "H03",
      "latitude": 40.660476,
      "longitude": -73.830301
    },
    {
      "display": "Broad Channel",
      "name": "Broad Channel",
      "gtfsStopId": "H04",
      "latitude": 40.608382,
      "longitude": -73.815925
    },
    {
      "display": "Beach 67th Street",
      "name": "Beach 67 St",
      "gtfsStopId": "H06",
      "latitude": 40.590927,
      "longitude": -73.796924
    },
    {
      "display": "Beach 60th Street",
      "name": "Beach 60 St",
      "gtfsStopId": "H07",
      "latitude": 40.592374,
      "longitude": -73.788522
    },
    {
      "display": "Beach 44th Street",
      "name": "Beach 44 St",
      "gtfsStopId": "H08",
      "latitude": 40.592943,
      "longitude": -73.776013
    },
    {
      "display": "Beach 36th Street",
      "name": "Beach 36 St",
      "gtfsStopId": "H09",
      "latitude": 40.595398,
      "longitude": -73.768175
    },
    {
      "display": "Beach 25th Street",
      "name": "Beach 25 St",
      "gtfsStopId": "H10",
      "latitude": 40.600066,
      "longitude": -73.761353
    },
    {
      "display": "Far Rockaway-Mott Avenue",
      "name": "Far Rockaway-Mott Av",
      "gtfsStopId": "H11",
      "latitude": 40.603995,
      "longitude": -73.755405
    }
  ],
  "B": [
    {
      "display": "Bedford Park Boulevard",
      "name": "Bedford Park Blvd",
      "gtfsStopId": "D03",
      "latitude": 40.873244,
      "longitude": -73.887138
    },
    {
      "display": "Kingsbridge Road",
      "name": "Kingsbridge Rd",
      "gtfsStopId": "D04",
      "latitude": 40.866978,
      "longitude": -73.893509
    },
    {
      "display": "Fordham Road",
      "name": "Fordham Rd",
      "gtfsStopId": "D05",
      "latitude": 40.861296,
      "longitude": -73.897749
    },
    {
      "display": "183rd Street",
      "name": "183 St",
      "gtfsStopId": "408",
      "latitude": 40.858407,
      "longitude": -73.903879
    },
    {
      "display": "Tremont Avenue",
      "name": "Tremont Av",
      "gtfsStopId": "D07",
      "latitude": 40.85041,
      "longitude": -73.905227
    },
    {
      "display": "174th-175th Streets",
      "name": "174-175 Sts",
      "gtfsStopId": "D08",
      "latitude": 40.8459,
      "longitude": -73.910136
    },
    {
      "display": "170th Street",
      "name": "170 St",
      "gtfsStopId": "D09",
      "latitude": 40.839306,
      "longitude": -73.9134
    },
    {
      "display": "167th Street",
      "name": "167 St",
      "gtfsStopId": "D10",
      "latitude": 40.833771,
      "longitude": -73.91844
    },
    {
      "display": "161st Street-Yankee Stadium",
      "name": "161 St-Yankee Stadium",
      "gtfsStopId": "D11",
      "latitude": 40.827905,
      "longitude": -73.925651
    },
    {
      "display": "145th Street",
      "name": "145 St",
      "gtfsStopId": "D13",
      "latitude": 40.824783,
      "longitude": -73.944216
    },
    {
      "display": "135th Street",
      "name": "135 St",
      "gtfsStopId": "A14",
      "latitude": 40.817894,
      "longitude": -73.947649
    },
    {
      "display": "125th Street",
      "name": "125 St",
      "gtfsStopId": "A15",
      "latitude": 40.811109,
      "longitude": -73.952343
    },
    {
      "display": "116th Street",
      "name": "116 St",
      "gtfsStopId": "A16",
      "latitude": 40.805085,
      "longitude": -73.954882
    },
    {
      "display": "Cathedral Parkway-110th Street",
      "name": "Cathedral Pkwy (110 St)",
      "gtfsStopId": "A17",
      "latitude": 40.800603,
      "longitude": -73.958161
    },
    {
      "display": "103rd Street",
      "name": "103 St",
      "gtfsStopId": "A18",
      "latitude": 40.796092,
      "longitude": -73.961454
    },
    {
      "display": "96th Street",
      "name": "96 St",
      "gtfsStopId": "Q05",
      "latitude": 40.784318,
      "longitude": -73.947152
    },
    {
      "display": "81st Street-Museum of Natural History",
      "name": "81 St-Museum of Natural History",
      "gtfsStopId": "A21",
      "latitude": 40.781433,
      "longitude": -73.972143
    },
    {
      "display": "72nd Street",
      "name": "72 St",
      "gtfsStopId": "Q03",
      "latitude": 40.768799,
      "longitude": -73.958424
    },
    {
      "display": "59th Street-Columbus Circle",
      "name": "59 St-Columbus Circle",
      "gtfsStopId": "A24",
      "latitude": 40.768296,
      "longitude": -73.981736
    },
    {
      "display": "7th Avenue",
      "name": "7 Av",
      "gtfsStopId": "F24",
      "latitude": 40.666271,
      "longitude": -73.980305
    },
    {
      "display": "47th-50th Streets-Rockefeller Center",
      "name": "47-50 Sts-Rockefeller Ctr",
      "gtfsStopId": "D15",
      "latitude": 40.758663,
      "longitude": -73.981329
    },
    {
      "display": "42nd Street-Bryant Park",
      "name": "42 St-Bryant Pk",
      "gtfsStopId": "D16",
      "latitude": 40.754222,
      "longitude": -73.984569
    },
    {
      "display": "34th Street-Herald Square",
      "name": "34 St-Herald Sq",
      "gtfsStopId": "R17",
      "latitude": 40.749567,
      "longitude": -73.98795
    },
    {
      "display": "West 4th Street-Washington Square",
      "name": "W 4 St-Wash Sq",
      "gtfsStopId": "D20",
      "latitude": 40.732338,
      "longitude": -74.000495
    },
    {
      "display": "Broadway-Lafayette Street",
      "name": "Bleecker St / Broadway-Lafayette St",
      "gtfsStopId": "637",
      "latitude": 40.725915,
      "longitude": -73.994659
    },
    {
      "display": "Grand Street",
      "name": "Grand St",
      "gtfsStopId": "L12",
      "latitude": 40.711926,
      "longitude": -73.94067
    },
    {
      "display": "DeKalb Avenue",
      "name": "DeKalb Av",
      "gtfsStopId": "R30",
      "latitude": 40.690635,
      "longitude": -73.981824
    },
    {
      "display": "Atlantic Avenue-Barclays Center",
      "name": "Atlantic Av-Barclays Ctr",
      "gtfsStopId": "R31",
      "latitude": 40.683666,
      "longitude": -73.97881
    },
    {
      "display": "7th Avenue",
      "name": "7 Av",
      "gtfsStopId": "F24",
      "latitude": 40.666271,
      "longitude": -73.980305
    },
    {
      "display": "Prospect Park",
      "name": "Prospect Park",
      "gtfsStopId": "D26",
      "latitude": 40.661614,
      "longitude": -73.962246
    },
    {
      "display": "Church Avenue",
      "name": "Church Av",
      "gtfsStopId": "F27",
      "latitude": 40.644041,
      "longitude": -73.979678
    },
    {
      "display": "Newkirk Plaza",
      "name": "Newkirk Plaza",
      "gtfsStopId": "D31",
      "latitude": 40.635082,
      "longitude": -73.962793
    },
    {
      "display": "Kings Highway",
      "name": "Kings Hwy",
      "gtfsStopId": "N08",
      "latitude": 40.603923,
      "longitude": -73.980353
    },
    {
      "display": "Sheepshead Bay",
      "name": "Sheepshead Bay",
      "gtfsStopId": "D39",
      "latitude": 40.586896,
      "longitude": -73.954155
    },
    {
      "display": "Brighton Beach",
      "name": "Brighton Beach",
      "gtfsStopId": "D40",
      "latitude": 40.577621,
      "longitude": -73.961376
    }
  ],
  "C": [
    {
      "display": "168th Street",
      "name": "168 St",
      "gtfsStopId": "A09",
      "latitude": 40.840719,
      "longitude": -73.939561
    },
    {
      "display": "163rd Street-Amsterdam Avenue",
      "name": "163 St-Amsterdam Av",
      "gtfsStopId": "A10",
      "latitude": 40.836013,
      "longitude": -73.939892
    },
    {
      "display": "155th Street",
      "name": "155 St",
      "gtfsStopId": "D12",
      "latitude": 40.830135,
      "longitude": -73.938209
    },
    {
      "display": "145th Street",
      "name": "145 St",
      "gtfsStopId": "D13",
      "latitude": 40.824783,
      "longitude": -73.944216
    },
    {
      "display": "135th Street",
      "name": "135 St",
      "gtfsStopId": "A14",
      "latitude": 40.817894,
      "longitude": -73.947649
    },
    {
      "display": "125th Street",
      "name": "125 St",
      "gtfsStopId": "A15",
      "latitude": 40.811109,
      "longitude": -73.952343
    },
    {
      "display": "116th Street",
      "name": "116 St",
      "gtfsStopId": "A16",
      "latitude": 40.805085,
      "longitude": -73.954882
    },
    {
      "display": "Cathedral Parkway-110th Street",
      "name": "Cathedral Pkwy (110 St)",
      "gtfsStopId": "A17",
      "latitude": 40.800603,
      "longitude": -73.958161
    },
    {
      "display": "103rd Street",
      "name": "103 St",
      "gtfsStopId": "A18",
      "latitude": 40.796092,
      "longitude": -73.961454
    },
    {
      "display": "96th Street",
      "name": "96 St",
      "gtfsStopId": "Q05",
      "latitude": 40.784318,
      "longitude": -73.947152
    },
    {
      "display": "86th Street",
      "name": "86 St",
      "gtfsStopId": "R44",
      "latitude": 40.622687,
      "longitude": -74.028398
    },
    {
      "display": "81st Street-Museum of Natural History",
      "name": "81 St-Museum of Natural History",
      "gtfsStopId": "A21",
      "latitude": 40.781433,
      "longitude": -73.972143
    },
    {
      "display": "72nd Street",
      "name": "72 St",
      "gtfsStopId": "Q03",
      "latitude": 40.768799,
      "longitude": -73.958424
    },
    {
      "display": "59th Street-Columbus Circle",
      "name": "59 St-Columbus Circle",
      "gtfsStopId": "A24",
      "latitude": 40.768296,
      "longitude": -73.981736
    },
    {
      "display": "50th Street",
      "name": "50 St",
      "gtfsStopId": "B14",
      "latitude": 40.63626,
      "longitude": -73.994791
    },
    {
      "display": "42nd Street-Port Authority Bus Terminal",
      "name": "42 St-Port Authority Bus Terminal",
      "gtfsStopId": "A27",
      "latitude": 40.757308,
      "longitude": -73.989735
    },
    {
      "display": "34th Street-Penn Station",
      "name": "34 St-Penn Station",
      "gtfsStopId": "A28",
      "latitude": 40.752287,
      "longitude": -73.993391
    },
    {
      "display": "23rd Street",
      "name": "23 St",
      "gtfsStopId": "R19",
      "latitude": 40.741303,
      "longitude": -73.989344
    },
    {
      "display": "14th Street",
      "name": "14 St",
      "gtfsStopId": "D19",
      "latitude": 40.738228,
      "longitude": -73.996209
    },
    {
      "display": "West 4th Street-Washington Square",
      "name": "W 4 St-Wash Sq",
      "gtfsStopId": "D20",
      "latitude": 40.732338,
      "longitude": -74.000495
    },
    {
      "display": "Spring Street",
      "name": "Spring St",
      "gtfsStopId": "A33",
      "latitude": 40.726227,
      "longitude": -74.003739
    },
    {
      "display": "Canal Street",
      "name": "Canal St",
      "gtfsStopId": "R23",
      "latitude": 40.719527,
      "longitude": -74.001775
    },
    {
      "display": "Chambers Street",
      "name": "Chambers St",
      "gtfsStopId": "M21",
      "latitude": 40.713243,
      "longitude": -74.003401
    },
    {
      "display": "Fulton Street",
      "name": "Fulton St",
      "gtfsStopId": "M22",
      "latitude": 40.710374,
      "longitude": -74.007582
    },
    {
      "display": "High Street",
      "name": "High St",
      "gtfsStopId": "A40",
      "latitude": 40.699337,
      "longitude": -73.990531
    },
    {
      "display": "Jay Street-MetroTech",
      "name": "Jay St-MetroTech",
      "gtfsStopId": "R29",
      "latitude": 40.69218,
      "longitude": -73.985942
    },
    {
      "display": "Hoyt-Schermerhorn Streets",
      "name": "Hoyt-Schermerhorn Sts",
      "gtfsStopId": "A42",
      "latitude": 40.688484,
      "longitude": -73.985001
    },
    {
      "display": "Lafayette Avenue",
      "name": "Lafayette Av",
      "gtfsStopId": "A43",
      "latitude": 40.686113,
      "longitude": -73.973946
    },
    {
      "display": "Clinton-Washington Avenues",
      "name": "Clinton-Washington Avs",
      "gtfsStopId": "G35",
      "latitude": 40.688089,
      "longitude": -73.966839
    },
    {
      "display": "Franklin Avenue",
      "name": "Franklin Av",
      "gtfsStopId": "S01",
      "latitude": 40.680596,
      "longitude": -73.955827
    },
    {
      "display": "Nostrand Avenue",
      "name": "Nostrand Av",
      "gtfsStopId": "A46",
      "latitude": 40.680438,
      "longitude": -73.950426
    },
    {
      "display": "Kingston-Throop Avenues",
      "name": "Kingston-Throop Avs",
      "gtfsStopId": "A47",
      "latitude": 40.679921,
      "longitude": -73.940858
    },
    {
      "display": "Utica Avenue",
      "name": "Utica Av",
      "gtfsStopId": "A48",
      "latitude": 40.679364,
      "longitude": -73.930729
    },
    {
      "display": "Ralph Avenue",
      "name": "Ralph Av",
      "gtfsStopId": "A49",
      "latitude": 40.678822,
      "longitude": -73.920786
    },
    {
      "display": "Rockaway Avenue",
      "name": "Rockaway Av",
      "gtfsStopId": "A50",
      "latitude": 40.67834,
      "longitude": -73.911946
    },
    {
      "display": "Broadway Junction",
      "name": "Broadway Junction",
      "gtfsStopId": "L22",
      "latitude": 40.678856,
      "longitude": -73.90324
    },
    {
      "display": "Liberty Avenue",
      "name": "Liberty Av",
      "gtfsStopId": "A52",
      "latitude": 40.674542,
      "longitude": -73.896548
    },
    {
      "display": "Van Siclen Avenue",
      "name": "Van Siclen Av",
      "gtfsStopId": "J23",
      "latitude": 40.678024,
      "longitude": -73.891688
    },
    {
      "display": "Shepherd Avenue",
      "name": "Shepherd Av",
      "gtfsStopId": "A54",
      "latitude": 40.67413,
      "longitude": -73.88075
    },
    {
      "display": "Euclid Avenue",
      "name": "Euclid Av",
      "gtfsStopId": "A55",
      "latitude": 40.675377,
      "longitude": -73.872106
    }
  ],
  "D": [
    {
      "display": "Norwood-205th Street",
      "name": "Norwood-205 St",
      "gtfsStopId": "D01",
      "latitude": 40.874811,
      "longitude": -73.878855
    },
    {
      "display": "Bedford Park Boulevard",
      "name": "Bedford Park Blvd",
      "gtfsStopId": "D03",
      "latitude": 40.873244,
      "longitude": -73.887138
    },
    {
      "display": "Kingsbridge Road",
      "name": "Kingsbridge Rd",
      "gtfsStopId": "D04",
      "latitude": 40.866978,
      "longitude": -73.893509
    },
    {
      "display": "Fordham Road",
      "name": "Fordham Rd",
      "gtfsStopId": "D05",
      "latitude": 40.861296,
      "longitude": -73.897749
    },
    {
      "display": "182nd-183rd Streets",
      "name": "182-183 Sts",
      "gtfsStopId": "D06",
      "latitude": 40.856093,
      "longitude": -73.900741
    },
    {
      "display": "Tremont Avenue",
      "name": "Tremont Av",
      "gtfsStopId": "D07",
      "latitude": 40.85041,
      "longitude": -73.905227
    },
    {
      "display": "174th-175th Streets",
      "name": "174-175 Sts",
      "gtfsStopId": "D08",
      "latitude": 40.8459,
      "longitude": -73.910136
    },
    {
      "display": "170th Street",
      "name": "170 St",
      "gtfsStopId": "D09",
      "latitude": 40.839306,
      "longitude": -73.9134
    },
    {
      "display": "167th Street",
      "name": "167 St",
      "gtfsStopId": "D10",
      "latitude": 40.833771,
      "longitude": -73.91844
    },
    {
      "display": "161st Street-Yankee Stadium",
      "name": "161 St-Yankee Stadium",
      "gtfsStopId": "D11",
      "latitude": 40.827905,
      "longitude": -73.925651
    },
    {
      "display": "155th Street",
      "name": "155 St",
      "gtfsStopId": "D12",
      "latitude": 40.830135,
      "longitude": -73.938209
    },
    {
      "display": "145th Street",
      "name": "145 St",
      "gtfsStopId": "D13",
      "latitude": 40.824783,
      "longitude": -73.944216
    },
    {
      "display": "125th Street",
      "name": "125 St",
      "gtfsStopId": "A15",
      "latitude": 40.811109,
      "longitude": -73.952343
    },
    {
      "display": "59th Street-Columbus Circle",
      "name": "59 St-Columbus Circle",
      "gtfsStopId": "A24",
      "latitude": 40.768296,
      "longitude": -73.981736
    },
    {
      "display": "7th Avenue",
      "name": "7 Av",
      "gtfsStopId": "F24",
      "latitude": 40.666271,
      "longitude": -73.980305
    },
    {
      "display": "47th-50th Streets-Rockefeller Center",
      "name": "47-50 Sts-Rockefeller Ctr",
      "gtfsStopId": "D15",
      "latitude": 40.758663,
      "longitude": -73.981329
    },
    {
      "display": "42nd Street-Bryant Park",
      "name": "42 St-Bryant Pk",
      "gtfsStopId": "D16",
      "latitude": 40.754222,
      "longitude": -73.984569
    },
    {
      "display": "34th Street-Herald Square",
      "name": "34 St-Herald Sq",
      "gtfsStopId": "R17",
      "latitude": 40.749567,
      "longitude": -73.98795
    },
    {
      "display": "West 4th Street-Washington Square",
      "name": "W 4 St-Wash Sq",
      "gtfsStopId": "D20",
      "latitude": 40.732338,
      "longitude": -74.000495
    },
    {
      "display": "Broadway-Lafayette Street",
      "name": "Bleecker St / Broadway-Lafayette St",
      "gtfsStopId": "637",
      "latitude": 40.725915,
      "longitude": -73.994659
    },
    {
      "display": "Grand Street",
      "name": "Grand St",
      "gtfsStopId": "L12",
      "latitude": 40.711926,
      "longitude": -73.94067
    },
    {
      "display": "DeKalb Avenue",
      "name": "DeKalb Av",
      "gtfsStopId": "R30",
      "latitude": 40.690635,
      "longitude": -73.981824
    },
    {
      "display": "Atlantic Avenue-Barclays Center",
      "name": "Atlantic Av-Barclays Ctr",
      "gtfsStopId": "R31",
      "latitude": 40.683666,
      "longitude": -73.97881
    },
    {
      "display": "7th Avenue",
      "name": "7 Av",
      "gtfsStopId": "F24",
      "latitude": 40.666271,
      "longitude": -73.980305
    },
    {
      "display": "Prospect Park",
      "name": "15 St-Prospect Park",
      "gtfsStopId": "F25",
      "latitude": 40.660365,
      "longitude": -73.979493
    },
    {
      "display": "Church Avenue",
      "name": "Church Av",
      "gtfsStopId": "F27",
      "latitude": 40.644041,
      "longitude": -73.979678
    },
    {
      "display": "Ditmas Avenue",
      "name": "Ditmas Av",
      "gtfsStopId": "F29",
      "latitude": 40.636119,
      "longitude": -73.978172
    },
    {
      "display": "18th Avenue",
      "name": "18 Av",
      "gtfsStopId": "N05",
      "latitude": 40.620671,
      "longitude": -73.990414
    },
    {
      "display": "20th Avenue",
      "name": "20 Av",
      "gtfsStopId": "N06",
      "latitude": 40.61741,
      "longitude": -73.985026
    },
    {
      "display": "Bay Parkway",
      "name": "Bay Pkwy",
      "gtfsStopId": "N07",
      "latitude": 40.611815,
      "longitude": -73.981848
    },
    {
      "display": "25th Avenue",
      "name": "86 St",
      "gtfsStopId": "R44",
      "latitude": 40.622687,
      "longitude": -74.028398
    },
    {
      "display": "Bay 50th Street",
      "name": "50 St",
      "gtfsStopId": "B14",
      "latitude": 40.63626,
      "longitude": -73.994791
    },
    {
      "display": "Coney Island-Stillwell Avenue",
      "name": "Coney Island-Stillwell Av",
      "gtfsStopId": "D43",
      "latitude": 40.577422,
      "longitude": -73.981233
    }
  ],
  "E": [
    {
      "display": "Jamaica Center-Parsons/Archer",
      "name": "Jamaica Center-Parsons/Archer",
      "gtfsStopId": "G05",
      "latitude": 40.702147,
      "longitude": -73.801109
    },
    {
      "display": "Sutphin Boulevard-Archer Avenue-JFK Airport",
      "name": "Sutphin Blvd-Archer Av-JFK Airport",
      "gtfsStopId": "G06",
      "latitude": 40.700486,
      "longitude": -73.807969
    },
    {
      "display": "Jamaica-Van Wyck",
      "name": "Jamaica-Van Wyck",
      "gtfsStopId": "G07",
      "latitude": 40.702566,
      "longitude": -73.816859
    },
    {
      "display": "Briarwood",
      "name": "Briarwood",
      "gtfsStopId": "F05",
      "latitude": 40.709179,
      "longitude": -73.820574
    },
    {
      "display": "Kew Gardens-Union Turnpike",
      "name": "Kew Gardens-Union Tpke",
      "gtfsStopId": "F06",
      "latitude": 40.714441,
      "longitude": -73.831008
    },
    {
      "display": "75th Avenue",
      "name": "75 Av",
      "gtfsStopId": "F07",
      "latitude": 40.718331,
      "longitude": -73.837324
    },
    {
      "display": "Forest Hills-71st Avenue",
      "name": "Forest Hills-71 Av",
      "gtfsStopId": "G08",
      "latitude": 40.721691,
      "longitude": -73.844521
    },
    {
      "display": "67th Avenue",
      "name": "67 Av",
      "gtfsStopId": "G09",
      "latitude": 40.726523,
      "longitude": -73.852719
    },
    {
      "display": "63rd Drive-Rego Park",
      "name": "63 Dr-Rego Park",
      "gtfsStopId": "G10",
      "latitude": 40.729846,
      "longitude": -73.861604
    },
    {
      "display": "Woodhaven Boulevard",
      "name": "Woodhaven Blvd",
      "gtfsStopId": "J15",
      "latitude": 40.693879,
      "longitude": -73.851576
    },
    {
      "display": "Grand Avenue-Newtown",
      "name": "Grand Av-Newtown",
      "gtfsStopId": "G12",
      "latitude": 40.737015,
      "longitude": -73.877223
    },
    {
      "display": "Elmhurst Avenue",
      "name": "Elmhurst Av",
      "gtfsStopId": "G13",
      "latitude": 40.742454,
      "longitude": -73.882017
    },
    {
      "display": "Jackson Heights-Roosevelt Avenue",
      "name": "Jackson Hts-Roosevelt Av",
      "gtfsStopId": "G14",
      "latitude": 40.746644,
      "longitude": -73.891338
    },
    {
      "display": "65th Street",
      "name": "65 St",
      "gtfsStopId": "G15",
      "latitude": 40.749669,
      "longitude": -73.898453
    },
    {
      "display": "Northern Boulevard",
      "name": "Northern Blvd",
      "gtfsStopId": "G16",
      "latitude": 40.752885,
      "longitude": -73.906006
    },
    {
      "display": "46th Street",
      "name": "46 St",
      "gtfsStopId": "G18",
      "latitude": 40.756312,
      "longitude": -73.913333
    },
    {
      "display": "Steinway Street",
      "name": "Steinway St",
      "gtfsStopId": "G19",
      "latitude": 40.756879,
      "longitude": -73.92074
    },
    {
      "display": "36th Street",
      "name": "36 St",
      "gtfsStopId": "R36",
      "latitude": 40.655144,
      "longitude": -74.003549
    },
    {
      "display": "Court Square-23rd Street",
      "name": "Court Sq-23 St",
      "gtfsStopId": "F09",
      "latitude": 40.747846,
      "longitude": -73.946
    },
    {
      "display": "Queens Plaza",
      "name": "Queens Plaza",
      "gtfsStopId": "G21",
      "latitude": 40.748973,
      "longitude": -73.937243
    },
    {
      "display": "Lexington Avenue-53rd Street",
      "name": "51 St / Lexington Av/53 St",
      "gtfsStopId": "F11",
      "latitude": 40.757552,
      "longitude": -73.969055
    },
    {
      "display": "5th Avenue-53rd Street",
      "name": "5 Av/53 St",
      "gtfsStopId": "F12",
      "latitude": 40.760167,
      "longitude": -73.975224
    },
    {
      "display": "7th Avenue",
      "name": "7 Av",
      "gtfsStopId": "F24",
      "latitude": 40.666271,
      "longitude": -73.980305
    },
    {
      "display": "50th Street",
      "name": "50 St",
      "gtfsStopId": "B14",
      "latitude": 40.63626,
      "longitude": -73.994791
    },
    {
      "display": "42nd Street-Port Authority Bus Terminal",
      "name": "42 St-Port Authority Bus Terminal",
      "gtfsStopId": "A27",
      "latitude": 40.757308,
      "longitude": -73.989735
    },
    {
      "display": "34th Street-Penn Station",
      "name": "34 St-Penn Station",
      "gtfsStopId": "A28",
      "latitude": 40.752287,
      "longitude": -73.993391
    },
    {
      "display": "23rd Street",
      "name": "23 St",
      "gtfsStopId": "R19",
      "latitude": 40.741303,
      "longitude": -73.989344
    },
    {
      "display": "14th Street",
      "name": "14 St / 8 Av",
      "gtfsStopId": "221",
      "latitude": 40.816109,
      "longitude": -73.917757
    },
    {
      "display": "Spring Street",
      "name": "Spring St",
      "gtfsStopId": "A33",
      "latitude": 40.726227,
      "longitude": -74.003739
    },
    {
      "display": "World Trade Center",
      "name": "World Trade Center",
      "gtfsStopId": "E01",
      "latitude": 40.712582,
      "longitude": -74.009781
    }
  ],
  "F": [
    {
      "display": "Jamaica-179th Street",
      "name": "Jamaica-179 St",
      "gtfsStopId": "F01",
      "latitude": 40.712646,
      "longitude": -73.783817
    },
    {
      "display": "169th Street",
      "name": "169 St",
      "gtfsStopId": "F02",
      "latitude": 40.71047,
      "longitude": -73.793604
    },
    {
      "display": "Parsons Boulevard",
      "name": "Parsons Blvd",
      "gtfsStopId": "F03",
      "latitude": 40.707564,
      "longitude": -73.803326
    },
    {
      "display": "Sutphin Boulevard",
      "name": "Sutphin Blvd",
      "gtfsStopId": "F04",
      "latitude": 40.70546,
      "longitude": -73.810708
    },
    {
      "display": "Briarwood",
      "name": "Briarwood",
      "gtfsStopId": "F05",
      "latitude": 40.709179,
      "longitude": -73.820574
    },
    {
      "display": "Kew Gardens-Union Turnpike",
      "name": "Kew Gardens-Union Tpke",
      "gtfsStopId": "F06",
      "latitude": 40.714441,
      "longitude": -73.831008
    },
    {
      "display": "75th Avenue",
      "name": "75 Av",
      "gtfsStopId": "F07",
      "latitude": 40.718331,
      "longitude": -73.837324
    },
    {
      "display": "Forest Hills-71st Avenue",
      "name": "Forest Hills-71 Av",
      "gtfsStopId": "G08",
      "latitude": 40.721691,
      "longitude": -73.844521
    },
    {
      "display": "Jackson Heights-Roosevelt Avenue",
      "name": "Roosevelt Av / 74 St-Broadway",
      "gtfsStopId": "G14",
      "latitude": 40.746644,
      "longitude": -73.891338
    },
    {
      "display": "21st Street-Queensbridge",
      "name": "21 St-Queensbridge",
      "gtfsStopId": "B04",
      "latitude": 40.754203,
      "longitude": -73.942836
    },
    {
      "display": "Roosevelt Island",
      "name": "Roosevelt Island",
      "gtfsStopId": "B06",
      "latitude": 40.759145,
      "longitude": -73.95326
    },
    {
      "display": "Lexington Avenue-63rd Street",
      "name": "Lexington Av/63 St",
      "gtfsStopId": "B08",
      "latitude": 40.764629,
      "longitude": -73.966113
    },
    {
      "display": "57th Street",
      "name": "57 St",
      "gtfsStopId": "B10",
      "latitude": 40.763972,
      "longitude": -73.97745
    },
    {
      "display": "47th-50th Streets-Rockefeller Center",
      "name": "47-50 Sts-Rockefeller Ctr",
      "gtfsStopId": "D15",
      "latitude": 40.758663,
      "longitude": -73.981329
    },
    {
      "display": "42nd Street-Bryant Park",
      "name": "42 St-Bryant Pk",
      "gtfsStopId": "D16",
      "latitude": 40.754222,
      "longitude": -73.984569
    },
    {
      "display": "34th Street-Herald Square",
      "name": "34 St-Herald Sq",
      "gtfsStopId": "R17",
      "latitude": 40.749567,
      "longitude": -73.98795
    },
    {
      "display": "23rd Street",
      "name": "23 St",
      "gtfsStopId": "R19",
      "latitude": 40.741303,
      "longitude": -73.989344
    },
    {
      "display": "14th Street",
      "name": "14 St / 6 Av",
      "gtfsStopId": "221",
      "latitude": 40.816109,
      "longitude": -73.917757
    },
    {
      "display": "West 4th Street-Washington Square",
      "name": "W 4 St-Wash Sq",
      "gtfsStopId": "D20",
      "latitude": 40.732338,
      "longitude": -74.000495
    },
    {
      "display": "Broadway-Lafayette Street",
      "name": "Bleecker St / Broadway-Lafayette St",
      "gtfsStopId": "637",
      "latitude": 40.725915,
      "longitude": -73.994659
    },
    {
      "display": "2nd Avenue",
      "name": "2 Av",
      "gtfsStopId": "F14",
      "latitude": 40.723402,
      "longitude": -73.989938
    },
    {
      "display": "Delancey Street-Essex Street",
      "name": "Delancey St-Essex St",
      "gtfsStopId": "M18",
      "latitude": 40.718315,
      "longitude": -73.987437
    },
    {
      "display": "East Broadway",
      "name": "East Broadway",
      "gtfsStopId": "F16",
      "latitude": 40.713715,
      "longitude": -73.990173
    },
    {
      "display": "York Street",
      "name": "York St",
      "gtfsStopId": "F18",
      "latitude": 40.701397,
      "longitude": -73.986751
    },
    {
      "display": "Jay Street-MetroTech",
      "name": "Jay St-MetroTech",
      "gtfsStopId": "R29",
      "latitude": 40.69218,
      "longitude": -73.985942
    },
    {
      "display": "Bergen Street",
      "name": "Bergen St",
      "gtfsStopId": "F20",
      "latitude": 40.686145,
      "longitude": -73.990862
    },
    {
      "display": "Carroll Street",
      "name": "Carroll St",
      "gtfsStopId": "F21",
      "latitude": 40.680303,
      "longitude": -73.995048
    },
    {
      "display": "Smith-9th Streets",
      "name": "Smith-9 Sts",
      "gtfsStopId": "F22",
      "latitude": 40.67358,
      "longitude": -73.995959
    },
    {
      "display": "4th Avenue-9th Street",
      "name": "4 Av-9 St",
      "gtfsStopId": "R33",
      "latitude": 40.670847,
      "longitude": -73.988302
    },
    {
      "display": "7th Avenue",
      "name": "7 Av",
      "gtfsStopId": "F24",
      "latitude": 40.666271,
      "longitude": -73.980305
    },
    {
      "display": "15th Street-Prospect Park",
      "name": "15 St-Prospect Park",
      "gtfsStopId": "F25",
      "latitude": 40.660365,
      "longitude": -73.979493
    },
    {
      "display": "Fort Hamilton Parkway",
      "name": "Fort Hamilton Pkwy",
      "gtfsStopId": "N03",
      "latitude": 40.631386,
      "longitude": -74.005351
    },
    {
      "display": "Church Avenue",
      "name": "Church Av",
      "gtfsStopId": "F27",
      "latitude": 40.644041,
      "longitude": -73.979678
    },
    {
      "display": "Ditmas Avenue",
      "name": "Ditmas Av",
      "gtfsStopId": "F29",
      "latitude": 40.636119,
      "longitude": -73.978172
    },
    {
      "display": "18th Avenue",
      "name": "18 Av",
      "gtfsStopId": "N05",
      "latitude": 40.620671,
      "longitude": -73.990414
    },
    {
      "display": "Avenue I",
      "name": "Avenue I",
      "gtfsStopId": "F31",
      "latitude": 40.625322,
      "longitude": -73.976127
    },
    {
      "display": "Bay Parkway",
      "name": "Bay Pkwy",
      "gtfsStopId": "N07",
      "latitude": 40.611815,
      "longitude": -73.981848
    },
    {
      "display": "Avenue N",
      "name": "Avenue N",
      "gtfsStopId": "F33",
      "latitude": 40.61514,
      "longitude": -73.974197
    },
    {
      "display": "Avenue P",
      "name": "Avenue P",
      "gtfsStopId": "F34",
      "latitude": 40.608944,
      "longitude": -73.973022
    },
    {
      "display": "Kings Highway",
      "name": "Kings Hwy",
      "gtfsStopId": "N08",
      "latitude": 40.603923,
      "longitude": -73.980353
    },
    {
      "display": "Avenue U",
      "name": "Avenue U",
      "gtfsStopId": "N09",
      "latitude": 40.597473,
      "longitude": -73.979137
    },
    {
      "display": "Avenue X",
      "name": "Avenue X",
      "gtfsStopId": "F38",
      "latitude": 40.58962,
      "longitude": -73.97425
    },
    {
      "display": "Neptune Avenue",
      "name": "Neptune Av",
      "gtfsStopId": "F39",
      "latitude": 40.581011,
      "longitude": -73.974574
    },
    {
      "display": "Coney Island-Stillwell Avenue",
      "name": "Coney Island-Stillwell Av",
      "gtfsStopId": "D43",
      "latitude": 40.577422,
      "longitude": -73.981233
    }
  ],
  "G": [
    {
      "display": "Court Square",
      "name": "Court Sq-23 St",
      "gtfsStopId": "F09",
      "latitude": 40.747846,
      "longitude": -73.946
    },
    {
      "display": "21st Street",
      "name": "21 St",
      "gtfsStopId": "G24",
      "latitude": 40.744065,
      "longitude": -73.949724
    },
    {
      "display": "Greenpoint Avenue",
      "name": "Greenpoint Av",
      "gtfsStopId": "G26",
      "latitude": 40.731352,
      "longitude": -73.954449
    },
    {
      "display": "Nassau Avenue",
      "name": "Nassau Av",
      "gtfsStopId": "G28",
      "latitude": 40.724635,
      "longitude": -73.951277
    },
    {
      "display": "Metropolitan Avenue",
      "name": "Metropolitan Av",
      "gtfsStopId": "G29",
      "latitude": 40.712792,
      "longitude": -73.951418
    },
    {
      "display": "Broadway",
      "name": "Broadway",
      "gtfsStopId": "R05",
      "latitude": 40.76182,
      "longitude": -73.925508
    },
    {
      "display": "Flushing Avenue",
      "name": "Flushing Av",
      "gtfsStopId": "M12",
      "latitude": 40.70026,
      "longitude": -73.941126
    },
    {
      "display": "Myrtle-Willoughby Avenues",
      "name": "Myrtle-Willoughby Avs",
      "gtfsStopId": "G32",
      "latitude": 40.694568,
      "longitude": -73.949046
    },
    {
      "display": "Bedford-Nostrand Avenues",
      "name": "Bedford-Nostrand Avs",
      "gtfsStopId": "G33",
      "latitude": 40.689627,
      "longitude": -73.953522
    },
    {
      "display": "Classon Avenue",
      "name": "Classon Av",
      "gtfsStopId": "G34",
      "latitude": 40.688873,
      "longitude": -73.96007
    },
    {
      "display": "Clinton-Washington Avenues",
      "name": "Clinton-Washington Avs",
      "gtfsStopId": "G35",
      "latitude": 40.688089,
      "longitude": -73.966839
    },
    {
      "display": "Fulton Street",
      "name": "Fulton St",
      "gtfsStopId": "M22",
      "latitude": 40.710374,
      "longitude": -74.007582
    },
    {
      "display": "Hoyt-Schermerhorn Streets",
      "name": "Hoyt-Schermerhorn Sts",
      "gtfsStopId": "A42",
      "latitude": 40.688484,
      "longitude": -73.985001
    },
    {
      "display": "Bergen Street",
      "name": "Bergen St",
      "gtfsStopId": "F20",
      "latitude": 40.686145,
      "longitude": -73.990862
    },
    {
      "display": "Carroll Street",
      "name": "Carroll St",
      "gtfsStopId": "F21",
      "latitude": 40.680303,
      "longitude": -73.995048
    },
    {
      "display": "Smith-9th Streets",
      "name": "Smith-9 Sts",
      "gtfsStopId": "F22",
      "latitude": 40.67358,
      "longitude": -73.995959
    },
    {
      "display": "4th Avenue-9th Street",
      "name": "4 Av-9 St",
      "gtfsStopId": "R33",
      "latitude": 40.670847,
      "longitude": -73.988302
    },
    {
      "display": "7th Avenue",
      "name": "7 Av",
      "gtfsStopId": "F24",
      "latitude": 40.666271,
      "longitude": -73.980305
    },
    {
      "display": "15th Street-Prospect Park",
      "name": "15 St-Prospect Park",
      "gtfsStopId": "F25",
      "latitude": 40.660365,
      "longitude": -73.979493
    },
    {
      "display": "Fort Hamilton Parkway",
      "name": "Fort Hamilton Pkwy",
      "gtfsStopId": "N03",
      "latitude": 40.631386,
      "longitude": -74.005351
    },
    {
      "display": "Church Avenue",
      "name": "Church Av",
      "gtfsStopId": "F27",
      "latitude": 40.644041,
      "longitude": -73.979678
    }
  ],
  "J": [
    {
      "display": "Jamaica Center-Parsons/Archer",
      "name": "Jamaica Center-Parsons/Archer",
      "gtfsStopId": "G05",
      "latitude": 40.702147,
      "longitude": -73.801109
    },
    {
      "display": "Sutphin Boulevard-Archer Avenue-JFK Airport",
      "name": "Sutphin Blvd-Archer Av-JFK Airport",
      "gtfsStopId": "G06",
      "latitude": 40.700486,
      "longitude": -73.807969
    },
    {
      "display": "121st Street",
      "name": "121 St",
      "gtfsStopId": "J12",
      "latitude": 40.700492,
      "longitude": -73.828294
    },
    {
      "display": "111th Street",
      "name": "111 St",
      "gtfsStopId": "J13",
      "latitude": 40.697418,
      "longitude": -73.836345
    },
    {
      "display": "104th Street",
      "name": "104 St",
      "gtfsStopId": "J14",
      "latitude": 40.695178,
      "longitude": -73.84433
    },
    {
      "display": "Woodhaven Boulevard",
      "name": "Woodhaven Blvd",
      "gtfsStopId": "J15",
      "latitude": 40.693879,
      "longitude": -73.851576
    },
    {
      "display": "85th Street-Forest Parkway",
      "name": "85 St-Forest Pkwy",
      "gtfsStopId": "J16",
      "latitude": 40.692435,
      "longitude": -73.86001
    },
    {
      "display": "75th Street-Elderts Lane",
      "name": "75 St-Elderts Ln",
      "gtfsStopId": "J17",
      "latitude": 40.691324,
      "longitude": -73.867139
    },
    {
      "display": "Cypress Hills",
      "name": "Cypress Hills",
      "gtfsStopId": "J19",
      "latitude": 40.689941,
      "longitude": -73.87255
    },
    {
      "display": "Crescent Street",
      "name": "Crescent St",
      "gtfsStopId": "J20",
      "latitude": 40.683194,
      "longitude": -73.873785
    },
    {
      "display": "Norwood Avenue",
      "name": "Norwood Av",
      "gtfsStopId": "J21",
      "latitude": 40.68141,
      "longitude": -73.880039
    },
    {
      "display": "Cleveland Street",
      "name": "Cleveland St",
      "gtfsStopId": "J22",
      "latitude": 40.679947,
      "longitude": -73.884639
    },
    {
      "display": "Van Siclen Avenue",
      "name": "Van Siclen Av",
      "gtfsStopId": "J23",
      "latitude": 40.678024,
      "longitude": -73.891688
    },
    {
      "display": "Alabama Avenue",
      "name": "Alabama Av",
      "gtfsStopId": "J24",
      "latitude": 40.676992,
      "longitude": -73.898654
    },
    {
      "display": "Broadway Junction",
      "name": "Broadway Junction",
      "gtfsStopId": "L22",
      "latitude": 40.678856,
      "longitude": -73.90324
    },
    {
      "display": "Chauncey Street",
      "name": "Chauncey St",
      "gtfsStopId": "J28",
      "latitude": 40.682893,
      "longitude": -73.910456
    },
    {
      "display": "Halsey Street",
      "name": "Halsey St",
      "gtfsStopId": "L19",
      "latitude": 40.695602,
      "longitude": -73.904084
    },
    {
      "display": "Gates Avenue",
      "name": "Gates Av",
      "gtfsStopId": "J30",
      "latitude": 40.68963,
      "longitude": -73.92227
    },
    {
      "display": "Kosciuszko Street",
      "name": "Kosciuszko St",
      "gtfsStopId": "J31",
      "latitude": 40.693342,
      "longitude": -73.928814
    },
    {
      "display": "Myrtle Avenue",
      "name": "Myrtle Av",
      "gtfsStopId": "M11",
      "latitude": 40.697207,
      "longitude": -73.935657
    },
    {
      "display": "Flushing Avenue",
      "name": "Flushing Av",
      "gtfsStopId": "M12",
      "latitude": 40.70026,
      "longitude": -73.941126
    },
    {
      "display": "Lorimer Street",
      "name": "Lorimer St",
      "gtfsStopId": "M13",
      "latitude": 40.703869,
      "longitude": -73.947408
    },
    {
      "display": "Hewes Street",
      "name": "Hewes St",
      "gtfsStopId": "M14",
      "latitude": 40.70687,
      "longitude": -73.953431
    },
    {
      "display": "Marcy Avenue",
      "name": "Marcy Av",
      "gtfsStopId": "M16",
      "latitude": 40.708359,
      "longitude": -73.957757
    },
    {
      "display": "Delancey Street-Essex Street",
      "name": "Delancey St-Essex St",
      "gtfsStopId": "M18",
      "latitude": 40.718315,
      "longitude": -73.987437
    },
    {
      "display": "Bowery",
      "name": "Bowery",
      "gtfsStopId": "M19",
      "latitude": 40.72028,
      "longitude": -73.993915
    },
    {
      "display": "Canal Street",
      "name": "Canal St",
      "gtfsStopId": "R23",
      "latitude": 40.719527,
      "longitude": -74.001775
    },
    {
      "display": "Chambers Street",
      "name": "Brooklyn Bridge-City Hall / Chambers St",
      "gtfsStopId": "640",
      "latitude": 40.713065,
      "longitude": -74.004131
    },
    {
      "display": "Fulton Street",
      "name": "Fulton St",
      "gtfsStopId": "M22",
      "latitude": 40.710374,
      "longitude": -74.007582
    },
    {
      "display": "Broad Street",
      "name": "Broad St",
      "gtfsStopId": "M23",
      "latitude": 40.706476,
      "longitude": -74.011056
    }
  ],
  "L": [
    {
      "display": "8th Avenue",
      "name": "14 St / 8 Av",
      "gtfsStopId": "L01",
      "latitude": 40.740322,
      "longitude": -74.002906
    },
    {
      "display": "6th Avenue",
      "name": "14 St / 6 Av",
      "gtfsStopId": "L02",
      "latitude": 40.737826,
      "longitude": -73.996209
    },
    {
      "display": "Union Square",
      "name": "14 St-Union Sq",
      "gtfsStopId": "L03",
      "latitude": 40.735736,
      "longitude": -73.990568
    },
    {
      "display": "3rd Avenue",
      "name": "3 Av",
      "gtfsStopId": "L05",
      "latitude": 40.732849,
      "longitude": -73.986122
    },
    {
      "display": "1st Avenue",
      "name": "1 Av",
      "gtfsStopId": "L06",
      "latitude": 40.730953,
      "longitude": -73.981628
    },
    {
      "display": "Bedford Avenue",
      "name": "Bedford Av",
      "gtfsStopId": "L08",
      "latitude": 40.717304,
      "longitude": -73.956872
    },
    {
      "display": "Lorimer Street",
      "name": "Lorimer St",
      "gtfsStopId": "L10",
      "latitude": 40.714063,
      "longitude": -73.950275
    },
    {
      "display": "Graham Avenue",
      "name": "Graham Av",
      "gtfsStopId": "L11",
      "latitude": 40.714565,
      "longitude": -73.944053
    },
    {
      "display": "Grand Street",
      "name": "Grand St",
      "gtfsStopId": "L12",
      "latitude": 40.711926,
      "longitude": -73.94067
    },
    {
      "display": "Montrose Avenue",
      "name": "Montrose Av",
      "gtfsStopId": "L13",
      "latitude": 40.707739,
      "longitude": -73.93985
    },
    {
      "display": "Morgan Avenue",
      "name": "Morgan Av",
      "gtfsStopId": "L14",
      "latitude": 40.706152,
      "longitude": -73.933147
    },
    {
      "display": "Jefferson Street",
      "name": "Jefferson St",
      "gtfsStopId": "L15",
      "latitude": 40.706607,
      "longitude": -73.922913
    },
    {
      "display": "DeKalb Avenue",
      "name": "DeKalb Av",
      "gtfsStopId": "L16",
      "latitude": 40.703811,
      "longitude": -73.918425
    },
    {
      "display": "Myrtle-Wyckoff Avenues",
      "name": "Myrtle-Wyckoff Avs",
      "gtfsStopId": "L17",
      "latitude": 40.69943,
      "longitude": -73.912385
    },
    {
      "display": "Halsey Street",
      "name": "Halsey St",
      "gtfsStopId": "L19",
      "latitude": 40.695602,
      "longitude": -73.904084
    },
    {
      "display": "Wilson Avenue",
      "name": "Wilson Av",
      "gtfsStopId": "L20",
      "latitude": 40.688764,
      "longitude": -73.904046
    },
    {
      "display": "Bushwick Avenue-Aberdeen Street",
      "name": "Bushwick Av-Aberdeen St",
      "gtfsStopId": "L21",
      "latitude": 40.682829,
      "longitude": -73.905249
    },
    {
      "display": "Broadway Junction",
      "name": "Broadway Junction",
      "gtfsStopId": "L22",
      "latitude": 40.678856,
      "longitude": -73.90324
    },
    {
      "display": "Atlantic Avenue",
      "name": "Atlantic Av",
      "gtfsStopId": "L24",
      "latitude": 40.675345,
      "longitude": -73.903097
    },
    {
      "display": "Sutter Avenue",
      "name": "Sutter Av",
      "gtfsStopId": "L25",
      "latitude": 40.669367,
      "longitude": -73.901975
    },
    {
      "display": "Livonia Avenue",
      "name": "Livonia Av",
      "gtfsStopId": "L26",
      "latitude": 40.664038,
      "longitude": -73.900571
    },
    {
      "display": "New Lots Avenue",
      "name": "New Lots Av",
      "gtfsStopId": "L27",
      "latitude": 40.658733,
      "longitude": -73.899232
    },
    {
      "display": "East 105th Street",
      "name": "East 105 St",
      "gtfsStopId": "L28",
      "latitude": 40.650573,
      "longitude": -73.899485
    },
    {
      "display": "Canarsie-Rockaway Parkway",
      "name": "Canarsie-Rockaway Pkwy",
      "gtfsStopId": "L29",
      "latitude": 40.646654,
      "longitude": -73.90185
    }
  ],
  "M": [
    {
      "display": "Forest Hills-71st Avenue",
      "name": "Forest Hills-71 Av",
      "gtfsStopId": "G08",
      "latitude": 40.721691,
      "longitude": -73.844521
    },
    {
      "display": "67th Avenue",
      "name": "67 Av",
      "gtfsStopId": "G09",
      "latitude": 40.726523,
      "longitude": -73.852719
    },
    {
      "display": "63rd Drive-Rego Park",
      "name": "63 Dr-Rego Park",
      "gtfsStopId": "G10",
      "latitude": 40.729846,
      "longitude": -73.861604
    },
    {
      "display": "Woodhaven Boulevard",
      "name": "Woodhaven Blvd",
      "gtfsStopId": "J15",
      "latitude": 40.693879,
      "longitude": -73.851576
    },
    {
      "display": "Grand Avenue-Newtown",
      "name": "Grand Av-Newtown",
      "gtfsStopId": "G12",
      "latitude": 40.737015,
      "longitude": -73.877223
    },
    {
      "display": "Elmhurst Avenue",
      "name": "Elmhurst Av",
      "gtfsStopId": "G13",
      "latitude": 40.742454,
      "longitude": -73.882017
    },
    {
      "display": "Jackson Heights-Roosevelt Avenue",
      "name": "Jackson Heights-Roosevelt Av",
      "gtfsStopId": "G14",
      "latitude": 40.746644,
      "longitude": -73.891338
    },
    {
      "display": "65th Street",
      "name": "65 St",
      "gtfsStopId": "G15",
      "latitude": 40.749669,
      "longitude": -73.898453
    },
    {
      "display": "Northern Boulevard",
      "name": "Northern Blvd",
      "gtfsStopId": "G16",
      "latitude": 40.752885,
      "longitude": -73.906006
    },
    {
      "display": "46th Street",
      "name": "46 St",
      "gtfsStopId": "G18",
      "latitude": 40.756312,
      "longitude": -73.913333
    },
    {
      "display": "Steinway Street",
      "name": "Steinway St",
      "gtfsStopId": "G19",
      "latitude": 40.756879,
      "longitude": -73.92074
    },
    {
      "display": "Queens Plaza",
      "name": "Queens Plaza",
      "gtfsStopId": "G21",
      "latitude": 40.748973,
      "longitude": -73.937243
    },
    {
      "display": "Court Square-23rd Street",
      "name": "Court Sq-23 St",
      "gtfsStopId": "F09",
      "latitude": 40.747846,
      "longitude": -73.946
    },
    {
      "display": "Lexington Avenue-53rd Street",
      "name": "Lexington Av-53 St",
      "gtfsStopId": "F11",
      "latitude": 40.757552,
      "longitude": -73.969055
    },
    {
      "display": "5th Avenue-53rd Street",
      "name": "5 Av/53 St",
      "gtfsStopId": "F12",
      "latitude": 40.760167,
      "longitude": -73.975224
    },
    {
      "display": "47th-50th Streets-Rockefeller Center",
      "name": "47-50 Sts-Rockefeller Ctr",
      "gtfsStopId": "D15",
      "latitude": 40.758663,
      "longitude": -73.981329
    },
    {
      "display": "42nd Street-Bryant Park",
      "name": "42 St-Bryant Pk",
      "gtfsStopId": "D16",
      "latitude": 40.754222,
      "longitude": -73.984569
    },
    {
      "display": "34th Street-Herald Square",
      "name": "34 St-Herald Sq",
      "gtfsStopId": "R17",
      "latitude": 40.749567,
      "longitude": -73.98795
    },
    {
      "display": "West 4th Street-Washington Square",
      "name": "W 4 St-Wash Sq",
      "gtfsStopId": "D20",
      "latitude": 40.732338,
      "longitude": -74.000495
    },
    {
      "display": "Broadway-Lafayette Street",
      "name": "Bleecker St / Broadway-Lafayette St",
      "gtfsStopId": "637",
      "latitude": 40.725915,
      "longitude": -73.994659
    },
    {
      "display": "Delancey St-Essex St",
      "name": "Delancey St-Essex St",
      "gtfsStopId": "M18",
      "latitude": 40.718315,
      "longitude": -73.987437
    },
    {
      "display": "Marcy Avenue",
      "name": "Marcy Av",
      "gtfsStopId": "M16",
      "latitude": 40.708359,
      "longitude": -73.957757
    },
    {
      "display": "Hewes Street",
      "name": "Hewes St",
      "gtfsStopId": "M14",
      "latitude": 40.70687,
      "longitude": -73.953431
    },
    {
      "display": "Lorimer Street",
      "name": "Lorimer St",
      "gtfsStopId": "M13",
      "latitude": 40.703869,
      "longitude": -73.947408
    },
    {
      "display": "Flushing Avenue",
      "name": "Flushing Av",
      "gtfsStopId": "M12",
      "latitude": 40.70026,
      "longitude": -73.941126
    },
    {
      "display": "Myrtle Avenue",
      "name": "Myrtle Av",
      "gtfsStopId": "M11",
      "latitude": 40.697207,
      "longitude": -73.935657
    },
    {
      "display": "Central Avenue",
      "name": "Central Av",
      "gtfsStopId": "M10",
      "latitude": 40.697857,
      "longitude": -73.927397
    },
    {
      "display": "Knickerbocker Avenue",
      "name": "Knickerbocker Av",
      "gtfsStopId": "M09",
      "latitude": 40.698664,
      "longitude": -73.919711
    },
    {
      "display": "Myrtle-Wyckoff Avenues",
      "name": "Myrtle-Wyckoff Avs",
      "gtfsStopId": "M08",
      "latitude": 40.69943,
      "longitude": -73.912385
    },
    {
      "display": "Seneca Avenue",
      "name": "Seneca Av",
      "gtfsStopId": "M06",
      "latitude": 40.702762,
      "longitude": -73.90774
    },
    {
      "display": "Forest Avenue",
      "name": "Forest Av",
      "gtfsStopId": "M05",
      "latitude": 40.704423,
      "longitude": -73.903077
    },
    {
      "display": "Fresh Pond Road",
      "name": "Fresh Pond Rd",
      "gtfsStopId": "M04",
      "latitude": 40.706186,
      "longitude": -73.895877
    },
    {
      "display": "Middle Village-Metropolitan Avenue",
      "name": "Middle Village-Metropolitan Av",
      "gtfsStopId": "M01",
      "latitude": 40.711396,
      "longitude": -73.889601
    }
  ],
  "N": [
    {
      "display": "Astoria-Ditmars Boulevard",
      "name": "Astoria-Ditmars Blvd",
      "gtfsStopId": "R01",
      "latitude": 40.775036,
      "longitude": -73.912034
    },
    {
      "display": "Astoria Boulevard",
      "name": "Astoria Blvd",
      "gtfsStopId": "R03",
      "latitude": 40.770258,
      "longitude": -73.917843
    },
    {
      "display": "30th Avenue",
      "name": "30 Av",
      "gtfsStopId": "R04",
      "latitude": 40.766779,
      "longitude": -73.921479
    },
    {
      "display": "Broadway",
      "name": "Broadway",
      "gtfsStopId": "R05",
      "latitude": 40.76182,
      "longitude": -73.925508
    },
    {
      "display": "36th Avenue",
      "name": "36 Av",
      "gtfsStopId": "R06",
      "latitude": 40.756804,
      "longitude": -73.929575
    },
    {
      "display": "39th Avenue-Dutch Kills",
      "name": "39 Av-Dutch Kills",
      "gtfsStopId": "R08",
      "latitude": 40.752882,
      "longitude": -73.932755
    },
    {
      "display": "Queensboro Plaza",
      "name": "Queensboro Plaza",
      "gtfsStopId": "R09",
      "latitude": 40.750582,
      "longitude": -73.940202
    },
    {
      "display": "Lexington Avenue-59th Street",
      "name": "Lexington Av/59 St",
      "gtfsStopId": "R11",
      "latitude": 40.76266,
      "longitude": -73.967258
    },
    {
      "display": "5th Avenue-59th Street",
      "name": "5 Av/59 St",
      "gtfsStopId": "R13",
      "latitude": 40.764811,
      "longitude": -73.973347
    },
    {
      "display": "57th Street-7th Avenue",
      "name": "57 St-7 Av",
      "gtfsStopId": "R14",
      "latitude": 40.764664,
      "longitude": -73.980658
    },
    {
      "display": "49th Street",
      "name": "49 St",
      "gtfsStopId": "R15",
      "latitude": 40.759901,
      "longitude": -73.984139
    },
    {
      "display": "Times Square-42nd Street",
      "name": "Times Sq-42 St",
      "gtfsStopId": "R16",
      "latitude": 40.754672,
      "longitude": -73.986754
    },
    {
      "display": "34th Street-Herald Square",
      "name": "34 St-Herald Sq",
      "gtfsStopId": "R17",
      "latitude": 40.749567,
      "longitude": -73.98795
    },